{
  "AK": [
    {
      "name": "Oxford House Northern Lights",
      "address": "538 S Klevin, Anchorage, AK 99508-2135",
      "latitude": 61.21719109999999,
      "longitude": -149.8049983
    },
    {
      "name": "Oxford House Denali",
      "address": "6414 Tolhurst, Anchorage, AK 99504-4450",
      "latitude": 61.1857624,
      "longitude": -149.7626708
    },
    {
      "name": "Oxford House Yukon",
      "address": "2721 Juneau Street, Anchorage, AK 99508",
      "latitude": 61.195995,
      "longitude": -149.8640392
    },
    {
      "name": "Oxford House Jefferson Drive",
      "address": "22 Farewell Ave, Fairbanks, AK 99701",
      "latitude": 64.84493590000001,
      "longitude": -147.6928225
    }
  ],
  "AR": [
    {
      "name": "Oxford House Bentonville Blue House",
      "address": "10 Stonebridge Way, Bentonville, AR 72712",
      "latitude": 36.3846572,
      "longitude": -94.16677399999999
    },
    {
      "name": "Oxford House Bentonville II",
      "address": "1403 NW 3rd, Bentonville, AR 72712",
      "latitude": 36.3751731,
      "longitude": -94.2276898
    },
    {
      "name": "Oxford House River Rock",
      "address": "605 SW River Rock St., Bentonville, AR 72712",
      "latitude": 36.3653673,
      "longitude": -94.262091
    },
    {
      "name": "Oxford House Harness",
      "address": "372 Harness Road, Harrison, AR 72601",
      "latitude": 36.2040397,
      "longitude": -93.1293331
    },
    {
      "name": "Oxford House Rogers 3rd Street",
      "address": "306 N. 3rd Street, Rogers, AR 72756",
      "latitude": 36.3356032,
      "longitude": -94.1187765
    },
    {
      "name": "Oxford House Carondolet",
      "address": "2642 Carondolet St. , Springdale, AR 72764",
      "latitude": 36.2076746,
      "longitude": -94.12527089999999
    }
  ],
  "CT": [
    {
      "name": "Oxford House East White",
      "address": "80 Main Street, East Hartford, CT 06118-3208",
      "latitude": 41.7311783,
      "longitude": -72.6216377
    },
    {
      "name": "Oxford House Yale",
      "address": "531 Whitney Ave., New Haven, CT 06511-2235",
      "latitude": 41.3250514,
      "longitude": -72.9159037
    },
    {
      "name": "Oxford House New Haven",
      "address": "126 Spring St., New Haven, CT 06519-2218",
      "latitude": 41.2939355,
      "longitude": -72.9341858
    },
    {
      "name": "Oxford House Rock Park",
      "address": "279 Blake Ave, New Haven, CT 06515-1310",
      "latitude": 41.3270603,
      "longitude": -72.95291139999999
    },
    {
      "name": "Oxford House Moon Park",
      "address": "262 Crescent St, New Haven, CT 06511",
      "latitude": 41.3274211,
      "longitude": -72.9414659
    },
    {
      "name": "Oxford House Building Hope",
      "address": "422 Main St., Portland, CT 06480",
      "latitude": 41.5841286,
      "longitude": -72.63244089999999
    },
    {
      "name": "Oxford House Sherwood",
      "address": "4 Sherwood Road, West Hartford, CT 06117",
      "latitude": 41.7862141,
      "longitude": -72.7373422
    }
  ],
  "CA": [
    {
      "name": "Oxford House Summers",
      "address": "4742 Cache Peak Dr., Antioch, CA 94531",
      "latitude": 37.9725315,
      "longitude": -121.8022345
    },
    {
      "name": "Oxford House Remedy",
      "address": "2469 Silveria Way, Antioch, CA 94531",
      "latitude": 37.9549188,
      "longitude": -121.7855657
    },
    {
      "name": "Oxford House Golden Empire",
      "address": "1816 Hughes Lane, Bakersfield, CA 93304",
      "latitude": 35.3368448,
      "longitude": -119.0298028
    },
    {
      "name": "Oxford House Cinelli",
      "address": "4072 Lillian Drive, Concord, CA 94521",
      "latitude": 37.9684182,
      "longitude": -121.9986064
    },
    {
      "name": "Oxford House Farm Bureau Road",
      "address": "1841 Farm Bureau Rd., Concord, CA 94519",
      "latitude": 37.9794731,
      "longitude": -122.0116186
    },
    {
      "name": "Oxford House McKissick",
      "address": "1501 Darlene Drive, Concord, CA 94520",
      "latitude": 37.9640587,
      "longitude": -122.0486369
    },
    {
      "name": "Oxford House Beachside",
      "address": "781 H St., Crescent City, CA 95531-3718",
      "latitude": 41.75557269999999,
      "longitude": -124.2006227
    },
    {
      "name": "Oxford House Sequoia",
      "address": "230 Lauff Ave, Crescent City, CA 95531",
      "latitude": 41.7601097,
      "longitude": -124.2051348
    },
    {
      "name": "Oxford House Lost Coast",
      "address": "1104 8th Street, Crescent City, CA 95531",
      "latitude": 41.7572043,
      "longitude": -124.1983771
    },
    {
      "name": "Oxford House Foothill",
      "address": "8055 Redwood Ave, Fontana, CA 92336-1639",
      "latitude": 34.107349,
      "longitude": -117.4839197
    },
    {
      "name": "Oxford House Pilot",
      "address": "506 N. Maplewood Street, Orange, CA 92867-6917",
      "latitude": 33.7953027,
      "longitude": -117.8419279
    },
    {
      "name": "Oxford House Pleasant Hill",
      "address": "20 Marlee rd., Pleasant Hill, CA 94523",
      "latitude": 37.9445645,
      "longitude": -122.0751114
    },
    {
      "name": "Oxford House The Pond",
      "address": "47 Dublin Dr., Pleasant Hill, CA ",
      "latitude": 37.9531813,
      "longitude": -122.0910898
    },
    {
      "name": "Oxford House Iris West",
      "address": "7077 Iris Pl, Rancho Cucamonga, CA 91739-1686",
      "latitude": 34.1257725,
      "longitude": -117.53299
    }
  ],
  "DC": [
    {
      "name": "Oxford House Bellevue",
      "address": "2934 Bellevue Terrace NW, Washington, DC 20016-5411",
      "latitude": 38.9280868,
      "longitude": -77.0760548
    },
    {
      "name": "Oxford House Brownstone",
      "address": "1228 M St. NW, Washington, DC 20005-5122",
      "latitude": 38.9054412,
      "longitude": -77.029122
    },
    {
      "name": "Oxford House Garrison",
      "address": "4312 Garrison Street NW, Washington, DC 20016-4035",
      "latitude": 38.9557321,
      "longitude": -77.08471399999999
    },
    {
      "name": "Oxford House R Street",
      "address": "45 New York Avenue, NW, Washington, DC 20001-1256",
      "latitude": 38.9070287,
      "longitude": -77.0107111
    },
    {
      "name": "Oxford House Kalorama",
      "address": "1318 Delafield Place NW, Washington, DC 20011-4419",
      "latitude": 38.9487899,
      "longitude": -77.0312522
    },
    {
      "name": "Oxford House Second Street",
      "address": "1314 Hamlin Street NE, Washington, DC 20017-2450",
      "latitude": 38.9279588,
      "longitude": -76.9875952
    },
    {
      "name": "Oxford House Joseph Smith",
      "address": "4609 Benning Road, SE, Washington, DC 20019-5158",
      "latitude": 38.8860338,
      "longitude": -76.9361957
    },
    {
      "name": "Oxford House Channing Street",
      "address": "1443 Channing St, NE, Washington, DC 20018-2005",
      "latitude": 38.9236237,
      "longitude": -76.9833965
    },
    {
      "name": "Oxford House Decatur Street",
      "address": "4804 14th Street, NW, Washington, DC 20011-4317",
      "latitude": 38.9485913,
      "longitude": -77.033103
    },
    {
      "name": "Oxford House Shepherd Street",
      "address": "310 Shepherd Street NW, Washington, DC 20011-4812",
      "latitude": 38.9398269,
      "longitude": -77.0158703
    },
    {
      "name": "Oxford House 45th Place",
      "address": "1119 45th Street NE, Washington, DC 20019-3808",
      "latitude": 38.9055654,
      "longitude": -76.9368259
    },
    {
      "name": "Oxford House Adrian",
      "address": "720 Adrian Street SE, Washington, DC 20019-4201",
      "latitude": 38.8803604,
      "longitude": -76.9442086
    },
    {
      "name": "Oxford House Euclid 2",
      "address": "2536 11th Street NW, Washington, DC 20001-3924",
      "latitude": 38.9233235,
      "longitude": -77.0272327
    },
    {
      "name": "Oxford House Exodus",
      "address": "4600 Central Ave NE, Washington, DC 20019-5233",
      "latitude": 38.8902697,
      "longitude": -76.93655439999999
    },
    {
      "name": "Oxford House Avalon",
      "address": "1335 Maple View Place SE, Washington, DC 20020-5709",
      "latitude": 38.86179740000001,
      "longitude": -76.98881519999999
    },
    {
      "name": "Oxford House North Rock Creek",
      "address": "1800 Plymouth Street, NW, Washington, DC 20012",
      "latitude": 38.9854181,
      "longitude": -77.04311109999999
    },
    {
      "name": "Oxford House Oxon Run",
      "address": "3326 Oxon Run Road SE, Washington, DC 20032",
      "latitude": 38.8401005,
      "longitude": -76.9961447
    },
    {
      "name": "Oxford House Congress Heights",
      "address": "1516 Olive Street NE, Washington, DC 20019-2715",
      "latitude": 38.9096905,
      "longitude": -76.9350213
    },
    {
      "name": "Oxford House Ben Black",
      "address": "1037 Evarts Street NE, Washington, DC 20018",
      "latitude": 38.9242136,
      "longitude": -76.99101499999999
    },
    {
      "name": "Oxford House Shaw-Logan",
      "address": "1305 T Street NW, Washington, DC 20009",
      "latitude": 38.9157574,
      "longitude": -77.0299548
    },
    {
      "name": "Oxford House Brookland",
      "address": "615 Buchanan St. NE, Washington, DC 20017",
      "latitude": 38.9461104,
      "longitude": -76.99790039999999
    },
    {
      "name": "Oxford House Moreland Street",
      "address": "5900 Moreland Street NW, Washington, DC 20015-1120",
      "latitude": 38.9681959,
      "longitude": -77.0575032
    },
    {
      "name": "Oxford House River Terrace",
      "address": "611 57th Street NE, Washington, DC 20019",
      "latitude": 38.8976747,
      "longitude": -76.9189076
    },
    {
      "name": "Oxford House Howard Road 1",
      "address": "1405A Howard Rd SE, Washington, DC 20020-4406",
      "latitude": 38.8598261,
      "longitude": -76.98971019999999
    },
    {
      "name": "Oxford House Ryan",
      "address": "4004 Blaine St. NE, Washington, DC 20019",
      "latitude": 38.8921099,
      "longitude": -76.94687569999999
    },
    {
      "name": "Oxford House Joyce C Cash",
      "address": "1235 Irving St. NE, Washington, DC 20017",
      "latitude": 38.928469,
      "longitude": -76.9894496
    },
    {
      "name": "Oxford House Hancock",
      "address": "4345 Wisconsin Avenue NW, Washington, DC 20016-2154",
      "latitude": 38.946144,
      "longitude": -77.0782914
    },
    {
      "name": "Oxford House Eric Ross",
      "address": "1807 3rd Street NE, Washington, DC 20002",
      "latitude": 38.91445830000001,
      "longitude": -77.0017323
    },
    {
      "name": "Oxford House Michigan Park",
      "address": "4705 7th Street NE, Washington, DC 20019",
      "latitude": 38.946523,
      "longitude": -76.9967763
    },
    {
      "name": "Oxford House Cecilia Park",
      "address": "1618 26th Place SE, Washington, DC 20020-3908",
      "latitude": 38.8700049,
      "longitude": -76.96974
    },
    {
      "name": "Oxford House Stone Creek",
      "address": "910 Southern Avenue SE, Washington, DC 20032",
      "latitude": 38.8311254,
      "longitude": -76.9889566
    },
    {
      "name": "Oxford House Foundation",
      "address": "4261 Meade Street NE, Washington, DC 20019-1951",
      "latitude": 38.9054486,
      "longitude": -76.9411025
    },
    {
      "name": "Oxford House Friendship Court",
      "address": "5024 A Street SE, Washington, DC 20019",
      "latitude": 38.8880595,
      "longitude": -76.9290394
    },
    {
      "name": "Oxford House Jelani",
      "address": "5026 A Street SE, Washington, DC 20019",
      "latitude": 38.8880405,
      "longitude": -76.9289606
    }
  ],
  "AL": [
    {
      "name": "Oxford House Chamelli",
      "address": "900 S. Houston Street, Athens, AL 35611",
      "latitude": 34.7963156,
      "longitude": -86.97493910000001
    },
    {
      "name": "Oxford House Magic City",
      "address": "976 Edwards Lake Rd., Birmingham, AL 35235",
      "latitude": 33.6090154,
      "longitude": -86.6768061
    },
    {
      "name": "Oxford House Bham",
      "address": "2340 6th Place NW, Center Point, AL 35215",
      "latitude": 33.6473321,
      "longitude": -86.70400409999999
    },
    {
      "name": "Oxford House JAK",
      "address": "100 Robbins Blvd, Daphne, AL 36526",
      "latitude": 30.6455998,
      "longitude": -87.82893659999999
    },
    {
      "name": "Oxford House Truelock",
      "address": "907 Dogwood Ave. W., Daphne, AL 36526",
      "latitude": 30.6141812,
      "longitude": -87.8963725
    },
    {
      "name": "Oxford House Point Mallard",
      "address": "4402 Murry Dr. SW, Decatur, AL 35603",
      "latitude": 34.5188081,
      "longitude": -86.92669579999999
    },
    {
      "name": "Oxford House Delano",
      "address": "1210 Timberland Dr. SW, Decatur, AL 35603",
      "latitude": 34.5449453,
      "longitude": -87.0055277
    },
    {
      "name": "Oxford House Dothan",
      "address": "1902 Westover Dr., Dothan, AL 36303",
      "latitude": 31.26045469999999,
      "longitude": -85.42730069999999
    },
    {
      "name": "Oxford House Coop",
      "address": "1508 Oak Drive, Dothan, AL 36303",
      "latitude": 31.2380472,
      "longitude": -85.4194809
    },
    {
      "name": "Oxford House Dodge",
      "address": "3805 Heatherbrook Pl., Dothan, AL 36303",
      "latitude": 31.2619274,
      "longitude": -85.4550639
    },
    {
      "name": "Oxford House Tiger Lane",
      "address": "1004 Rhodes St NW, Hartselle, AL 35640",
      "latitude": 34.4570508,
      "longitude": -86.9517108
    },
    {
      "name": "Oxford House Over the Mountains",
      "address": "3487 Flintshire Dr., Hoover, AL 35226",
      "latitude": 33.3822203,
      "longitude": -86.82278910000001
    },
    {
      "name": "Oxford House Queensview",
      "address": "2305 Queensview Rd., Hoover, AL 35226",
      "latitude": 33.425244,
      "longitude": -86.82064160000002
    },
    {
      "name": "Oxford House Forestdale",
      "address": "2647 Apollo Circle, Hoover, AL 35226",
      "latitude": 33.403799,
      "longitude": -86.821787
    },
    {
      "name": "Oxford House Heather Place",
      "address": "3422 Heather Lane, Hoover, AL 35216",
      "latitude": 33.4011156,
      "longitude": -86.7822868
    },
    {
      "name": "Oxford House Shades Crest",
      "address": "3856 S. Shades Crest Rd., Hoover, AL 35244",
      "latitude": 33.3326647,
      "longitude": -86.8818723
    },
    {
      "name": "Oxford House Linger",
      "address": "2614 Linger Lane, Hoover, AL 35226",
      "latitude": 33.401102,
      "longitude": -86.82168899999999
    },
    {
      "name": "Oxford House Rocket City",
      "address": "6305 Marsh Ave. NW, Huntsville, AL 35806",
      "latitude": 34.7139701,
      "longitude": -86.6616986
    },
    {
      "name": "Oxford House Redstone",
      "address": "3204 Whitesburg Dr. SW, Huntsville, AL 35802",
      "latitude": 34.7022136,
      "longitude": -86.5694688
    },
    {
      "name": "Oxford House New Serenity",
      "address": "311 Forrest Park Ct. NW, Huntsville, AL 35806",
      "latitude": 34.719904,
      "longitude": -86.6697062
    },
    {
      "name": "Oxford House New Heights",
      "address": "517 Harolds Drive NW, Huntsville, AL 35806",
      "latitude": 34.7196895,
      "longitude": -86.66026219999999
    },
    {
      "name": "Oxford House Constellation",
      "address": "116 Futurity Way, Meridianville, AL 35759",
      "latitude": 34.8633355,
      "longitude": -86.5794027
    },
    {
      "name": "Oxford House Alabama",
      "address": "125 Dilston Ln, Mobile, AL 36608",
      "latitude": 30.6993588,
      "longitude": -88.14051909999999
    },
    {
      "name": "Oxford House Mobile",
      "address": "524 Hillcrest Rd, Mobile, AL 36608",
      "latitude": 30.6811199,
      "longitude": -88.1910755
    },
    {
      "name": "Oxford House Christi",
      "address": "421 Pennington Circle, Mobile, AL 36606",
      "latitude": 30.6710869,
      "longitude": -88.11038099999999
    },
    {
      "name": "Oxford House Azalea City",
      "address": "1163 Skyland Circle E, Mobile, AL 36609",
      "latitude": 30.6420364,
      "longitude": -88.1369833
    },
    {
      "name": "Oxford House Beacon of Hope",
      "address": "816 Richmond Rd, Mobile, AL 36608",
      "latitude": 30.7062711,
      "longitude": -88.16896129999999
    },
    {
      "name": "Oxford House New Tide",
      "address": "2710 Longleaf Drive, Mobile, AL 36693",
      "latitude": 30.6349089,
      "longitude": -88.1658236
    },
    {
      "name": "Oxford House Faythe",
      "address": "4171 Burma Road, Mobile, AL 36693",
      "latitude": 30.6398989,
      "longitude": -88.1533256
    },
    {
      "name": "Oxford House Carnival",
      "address": "3968 Rainbow Drive N., Mobile, AL 36693",
      "latitude": 30.6334927,
      "longitude": -88.1421501
    },
    {
      "name": "Oxford House E. Greene",
      "address": "7941 Suzanne Way, Mobile, AL 36695",
      "latitude": 30.6558233,
      "longitude": -88.22959180000001
    },
    {
      "name": "Oxford House Rally",
      "address": "405 Conventry Way, Mobile, AL 36606",
      "latitude": 30.6716049,
      "longitude": -88.1121866
    },
    {
      "name": "Oxford House Bohemian",
      "address": "2432 Maple Dr., Mobile, AL 36695",
      "latitude": 30.6386757,
      "longitude": -88.222298
    },
    {
      "name": "Oxford House Rhapsody",
      "address": "1185 St. Dominic Place, Mobile, AL 36693",
      "latitude": 30.6413934,
      "longitude": -88.1478376
    },
    {
      "name": "Oxford House Catalyst",
      "address": "2060 S. Hull St., Montgomery, AL 36104",
      "latitude": 32.352607,
      "longitude": -86.302994
    },
    {
      "name": "Oxford House Yellow Hammer",
      "address": "3916 Llyde Ln., Montgomery, AL 36106",
      "latitude": 32.3437217,
      "longitude": -86.24106019999999
    },
    {
      "name": "Oxford House King Parks",
      "address": "337 Mont Vista Dr., Montgomery, AL 36109",
      "latitude": 32.3761826,
      "longitude": -86.2379405
    },
    {
      "name": "Oxford House Shallow Tail",
      "address": "238 Holly Ridge Dr., Montgomery, AL 36109",
      "latitude": 32.3777205,
      "longitude": -86.2398653
    },
    {
      "name": "Oxford House Longleaf Pine",
      "address": "3526 S. Georgetown Dr., Montgomery, AL 36109",
      "latitude": 32.3909047,
      "longitude": -86.2544875
    },
    {
      "name": "Oxford House Mayfair II",
      "address": "3507 Mayfair Road, Montgomery, AL 36109",
      "latitude": 32.3923295,
      "longitude": -86.2548446
    },
    {
      "name": "Oxford House E Fletcher",
      "address": "5724 Carriage Brook Rd., Montgomery, AL 36116",
      "latitude": 32.3374476,
      "longitude": -86.2198001
    },
    {
      "name": "Oxford House Southern Belle",
      "address": "1924 Still Oaks Dr., Montgomery, AL 36117",
      "latitude": 32.3526889,
      "longitude": -86.198754
    },
    {
      "name": "Oxford House Delraida",
      "address": "4004 Hickory Dr., Montgomery, AL 36109",
      "latitude": 32.3854534,
      "longitude": -86.2435361
    },
    {
      "name": "Oxford House Emcee",
      "address": "3884 Marie Cook Dr., Montgomery, AL 36109",
      "latitude": 32.3953382,
      "longitude": -86.2408178
    },
    {
      "name": "Oxford House Taamasa",
      "address": "348 Mont Vista Dr., Montgomery, AL 36109",
      "latitude": 32.3755732,
      "longitude": -86.238258
    },
    {
      "name": "Oxford House Trovador",
      "address": "213 Fox Hollow Rd., Montgomery, AL 36109",
      "latitude": 32.3769964,
      "longitude": -86.2296452
    },
    {
      "name": "Oxford House Gump",
      "address": "2444 Belcher Dr., Montgomery, AL 36111",
      "latitude": 32.339361,
      "longitude": -86.26414729999999
    },
    {
      "name": "Oxford House Lilaboc",
      "address": "3374 Habersham Rd., Montgomery, AL 36109",
      "latitude": 32.3635092,
      "longitude": -86.2577407
    },
    {
      "name": "Oxford House Rustic",
      "address": "612 Rustic St., Opelika, AL 36801",
      "latitude": 32.6521112,
      "longitude": -85.41282919999999
    },
    {
      "name": "Oxford House Phenix City",
      "address": "2509 Hickoryridge Dr., Phenix City, AL 36870",
      "latitude": 32.485059,
      "longitude": -85.0462206
    },
    {
      "name": "Oxford House Ancre",
      "address": "18 Oakwood Dr., Phenix City, AL 36870",
      "latitude": 32.4791121,
      "longitude": -85.0836279
    },
    {
      "name": "Oxford House Cheaha",
      "address": "411 Lee Road 219, Phenix City, AL 36870",
      "latitude": 32.4843301,
      "longitude": -85.074277
    },
    {
      "name": "Oxford House Bay City",
      "address": "106 Patrician Dr., Spanish Fort, AL 36527",
      "latitude": 30.666052,
      "longitude": -87.9122539
    },
    {
      "name": "Oxford House Crimson Tide",
      "address": "38 Arlington Dr., Tuscaloosa, AL 35401",
      "latitude": 33.1880238,
      "longitude": -87.5340087
    },
    {
      "name": "Oxford House Prince 1",
      "address": "1 Prince Dr., Tuscaloosa, AL 35401",
      "latitude": 33.1863184,
      "longitude": -87.5392571
    },
    {
      "name": "Oxford House Lamour",
      "address": "3124 Veterans Memorial Pkwy, Tuscaloosa, AL 35404",
      "latitude": 33.1977993,
      "longitude": -87.4964701
    },
    {
      "name": "Oxford House T-Town",
      "address": "4 Forest Hill, Tuscaloosa, AL 35611",
      "latitude": 33.2098407,
      "longitude": -87.56917349999999
    },
    {
      "name": "Oxford House Bice",
      "address": "1716 Kicker Rd., Tuscaloosa, AL 35404",
      "latitude": 33.1942257,
      "longitude": -87.5129735
    },
    {
      "name": "Oxford House Esperanca",
      "address": "3 Hickory Forest, Tuscaloosa, AL 35401",
      "latitude": 33.1869638,
      "longitude": -87.5386003
    },
    {
      "name": "Oxford House Appalachian Mountains",
      "address": "2858 Georgetown Drive, Vestavia Hills, AL 35216",
      "latitude": 33.4030825,
      "longitude": -86.7994555
    }
  ],
  "GA": [
    {
      "name": "Oxford House Glyndon Beard",
      "address": "2284 Buford Dam Rd., Buford, GA 30518",
      "latitude": 34.1422895,
      "longitude": -84.0136708
    },
    {
      "name": "Oxford House Buttercup",
      "address": "1301 Buttercup Ct, Lawrenceville, GA 30044-2113",
      "latitude": 33.9518979,
      "longitude": -84.0877702
    },
    {
      "name": "Oxford House Dickens",
      "address": "947 Dickens Rd. NW, Lilburn, GA 30047",
      "latitude": 33.9047624,
      "longitude": -84.1576516
    }
  ],
  "HI": [
    {
      "name": "Oxford House Waimalu",
      "address": "98-087 Lii Ipo St. Apt 401B, Aiea, HI 96701-5244",
      "latitude": 21.386488,
      "longitude": -157.947457
    },
    {
      "name": "Oxford House Makalea",
      "address": "91-616 Makalea St #68, Ewa Beach, HI 96706-5944",
      "latitude": 21.3347491,
      "longitude": -158.0150842
    },
    {
      "name": "Oxford House Kalihi Valley",
      "address": "1624 Violet Street Unit A, Honolulu, HI 96819-3870",
      "latitude": 21.3478362,
      "longitude": -157.8573744
    },
    {
      "name": "Oxford House Kam IV",
      "address": "2479 Lakoloa Place, Honolulu, HI 96819-2655",
      "latitude": 21.3431982,
      "longitude": -157.8761436
    },
    {
      "name": "Oxford House Piliwai Hale",
      "address": "2749 Piliwai Street, Honolulu, HI 96819-2841",
      "latitude": 21.3515617,
      "longitude": -157.8600514
    },
    {
      "name": "Oxford House Noho Uka",
      "address": "2996 Kalihi St, Unit B, Honolulu, HI 96819-3018",
      "latitude": 21.3558614,
      "longitude": -157.8551855
    },
    {
      "name": "Oxford House Maluhia",
      "address": "2996 Kalihi Street Unit A, Honolulu, HI 96819-3018",
      "latitude": 21.3558614,
      "longitude": -157.8551855
    },
    {
      "name": "Oxford House Manaolana",
      "address": "1625 Kam IV Road Unit A, Honolulu, HI 96819-2680",
      "latitude": 21.3416064,
      "longitude": -157.8740475
    },
    {
      "name": "Oxford House Hoohauoli",
      "address": "1625 Kam IV Road, Honolulu, HI 96819-2680",
      "latitude": 21.3416064,
      "longitude": -157.8740475
    },
    {
      "name": "Oxford House Mahana",
      "address": "1802A Akone Place, Honolulu, HI 96819-2803",
      "latitude": 21.3503459,
      "longitude": -157.8576819
    },
    {
      "name": "Oxford House Hau Street",
      "address": "1814 Hau Street #101, Honolulu, HI 96819-3253",
      "latitude": 21.3270027,
      "longitude": -157.8814065
    },
    {
      "name": "Oxford House Akone",
      "address": "1802 Akone Place, Honolulu, HI 96819-2803",
      "latitude": 21.3503459,
      "longitude": -157.8576819
    },
    {
      "name": "Oxford House Kuokoa",
      "address": "1814 Hau St Apt 201, Honolulu, HI 96819-3253",
      "latitude": 21.3270027,
      "longitude": -157.8814065
    },
    {
      "name": "Oxford House Wahine Noho Kula",
      "address": "1221 Ala Aupaka Pl, Honolulu, HI 96818-2232",
      "latitude": 21.3527318,
      "longitude": -157.9194577
    },
    {
      "name": "Oxford House Kalani",
      "address": "1734 Kalani Street, Honolulu, HI 96819",
      "latitude": 21.3262228,
      "longitude": -157.8816091
    },
    {
      "name": "Oxford House Niu Valley",
      "address": "5580 Kalanianaole Hwy, Honolulu, HI 96821",
      "latitude": 21.2809812,
      "longitude": -157.7410838
    },
    {
      "name": "Oxford House Kealoha",
      "address": "207 Kalihi Street, Honolulu, HI 96819",
      "latitude": 21.3215212,
      "longitude": -157.8844803
    },
    {
      "name": "Oxford House Uhu",
      "address": "2035 Uhu Street, Honolulu, HI 96819",
      "latitude": 21.3362768,
      "longitude": -157.8738918
    },
    {
      "name": "Oxford House Kalihi",
      "address": "1021 Gulick Ave, Honolulu, HI 96819",
      "latitude": 21.333479,
      "longitude": -157.8785189
    },
    {
      "name": "Oxford House Honolulu",
      "address": "1091 S. Beretania Street #B, Honolulu, HI 96814",
      "latitude": 21.3021261,
      "longitude": -157.8454048
    },
    {
      "name": "Oxford House Liholiho",
      "address": "1446 Liholoho Street, Honolulu, HI 96822",
      "latitude": 21.3044059,
      "longitude": -157.8405149
    },
    {
      "name": "Oxford House Rycroft",
      "address": "1207 Rycroft St., Honolulu, HI 96822",
      "latitude": 21.2972997,
      "longitude": -157.8448927
    },
    {
      "name": "Oxford House Maikai Loa",
      "address": "98-143 Olepe Loop, Honolulu, HI 96701",
      "latitude": 21.3874321,
      "longitude": -157.9522675
    },
    {
      "name": "Oxford House Kupale",
      "address": "98-143 Olepe Loop, Honolulu, HI 96701",
      "latitude": 21.3874321,
      "longitude": -157.9522675
    },
    {
      "name": "Oxford House Paloma",
      "address": "425  Maluniu Avenue Apt A, Kailua, HI 96734-2381",
      "latitude": 21.402095,
      "longitude": -157.744886
    },
    {
      "name": "Oxford House Coconut Grove",
      "address": "454 Oneawa St, Kailua, HI 96734-2421",
      "latitude": 21.4013448,
      "longitude": -157.7483733
    },
    {
      "name": "Oxford House Paopua",
      "address": "531 Wanaao Road, Kailua, HI 96734",
      "latitude": 21.3876997,
      "longitude": -157.7297577
    },
    {
      "name": "Oxford House Namoku",
      "address": "45-027 Namoku Street, Kaneohe, HI 96744-5303",
      "latitude": 21.4050618,
      "longitude": -157.7844391
    },
    {
      "name": "Oxford House Puali",
      "address": "45-328 Puali Street, Kaneohe, HI 96744",
      "latitude": 21.3998908,
      "longitude": -157.7932437
    },
    {
      "name": "Oxford House Heeia",
      "address": "47-186 Kamehameha Hwy, Kaneohe, HI 96744",
      "latitude": 21.4520042,
      "longitude": -157.8218775
    }
  ],
  "IA": [
    {
      "name": "Oxford House Loess Hills",
      "address": "200 South 1st Street, Council Bluff, IA 51503-4369",
      "latitude": 41.2618736,
      "longitude": -95.8426575
    },
    {
      "name": "Oxford House Bluffs",
      "address": "725 5th Avenue, Council Bluffs, IA 51504",
      "latitude": 41.2568113,
      "longitude": -95.85569509999999
    },
    {
      "name": "Oxford House Wapello",
      "address": "201 N Ward, Ottumwa, IA 52501",
      "latitude": 41.005088,
      "longitude": -92.42378570000001
    },
    {
      "name": "Oxford House Nebraska Street",
      "address": "2931 Nebraska Street, Sioux City, IA 51104-3654",
      "latitude": 42.521926,
      "longitude": -96.404108
    },
    {
      "name": "Oxford House Douglas Street",
      "address": "3217 Cheyenne Blvd., Sioux City, IA 51104-3717",
      "latitude": 42.5254058,
      "longitude": -96.3926178
    },
    {
      "name": "Oxford House 16th Street",
      "address": "209 16th Street, Sioux City, IA 51103-3825",
      "latitude": 42.5073518,
      "longitude": -96.4089262
    }
  ],
  "DE": [
    {
      "name": "Oxford House Princeton Place",
      "address": "3 Princeton Avenue, Claymont, DE 19703",
      "latitude": 39.7956424,
      "longitude": -75.4647181
    },
    {
      "name": "Oxford House Rivendell",
      "address": "181 W. Shelley Drive, Claymont, DE 19703",
      "latitude": 39.8113509,
      "longitude": -75.468359
    },
    {
      "name": "Oxford House Kelvin",
      "address": "2514 Traynor Ave., Claymont, DE 19703",
      "latitude": 39.7960754,
      "longitude": -75.4795541
    },
    {
      "name": "Oxford House Ida B. Wells",
      "address": "125 Overlook Place, Dover, DE 19901",
      "latitude": 39.1772842,
      "longitude": -75.52682829999999
    },
    {
      "name": "Oxford House Taurine",
      "address": "227 North Govenors Ave, Dover, DE 19904",
      "latitude": 39.1645244,
      "longitude": -75.5293377
    },
    {
      "name": "Oxford House Silver Lake",
      "address": "833 Miller Drive, Dover, DE 19901",
      "latitude": 39.1796005,
      "longitude": -75.5171381
    },
    {
      "name": "Oxford House Reliant",
      "address": "200 North State Street, Dover, DE 19901",
      "latitude": 39.1641881,
      "longitude": -75.52696949999999
    },
    {
      "name": "Oxford House Victory Lane",
      "address": "931 Boggs Dr., Dover, DE 19901",
      "latitude": 39.1762536,
      "longitude": -75.518048
    },
    {
      "name": "Oxford House Guinan",
      "address": "65 Laurel Drive, Dover, DE 19901",
      "latitude": 39.1480135,
      "longitude": -75.5122245
    },
    {
      "name": "Oxford House Chekov",
      "address": "15 Clara St, Dover, DE 19901",
      "latitude": 39.167442,
      "longitude": -75.5289244
    },
    {
      "name": "Oxford House Vanderbilt",
      "address": "888 Lincoln St., Dover, DE 19901",
      "latitude": 39.1573871,
      "longitude": -75.5404677
    },
    {
      "name": "Oxford House Murdock",
      "address": "304 North Governors Avenue, Dover, DE 19904",
      "latitude": 39.1651162,
      "longitude": -75.5300583
    },
    {
      "name": "Oxford House Bradshaw",
      "address": "354 Alder Rd., Dover, DE 19904",
      "latitude": 39.1362974,
      "longitude": -75.538292
    },
    {
      "name": "Oxford House McNabb",
      "address": "40 Bertrand Dr., Dover, DE 19904",
      "latitude": 39.1577438,
      "longitude": -75.5410213
    },
    {
      "name": "Oxford House Naboo",
      "address": "325 North Bedford Street, Georgetown, DE 19947",
      "latitude": 38.694546,
      "longitude": -75.3914269
    },
    {
      "name": "Oxford House Bedford",
      "address": "116 N Bedford St, Georgetown, DE 19947",
      "latitude": 38.69205609999999,
      "longitude": -75.3879208
    },
    {
      "name": "Oxford House Coolsprings",
      "address": "202 North Bedford Street, Georgetown, DE 19947",
      "latitude": 38.6922855,
      "longitude": -75.38814839999999
    },
    {
      "name": "Oxford House Excelsior II",
      "address": "23348 Park Ave., Georgetown, DE 19947",
      "latitude": 38.7045204,
      "longitude": -75.3426526
    },
    {
      "name": "Oxford House Genesis II",
      "address": "213 South Bedford Street, Georgetown, DE 19947",
      "latitude": 38.6873009,
      "longitude": -75.3820467
    },
    {
      "name": "Oxford House Uhura",
      "address": "207 East Market St., Georgetown, DE 19947",
      "latitude": 38.6923585,
      "longitude": -75.3833672
    },
    {
      "name": "Oxford House Castiglione",
      "address": "713 East Market Street, Georgetown, DE 19947",
      "latitude": 38.6977134,
      "longitude": -75.3738044
    },
    {
      "name": "Oxford House Tiberius",
      "address": "108 Linden Ave, Georgetown, DE 19947",
      "latitude": 38.6904668,
      "longitude": -75.4018992
    },
    {
      "name": "Oxford House Sulu",
      "address": "209 S. Bedford St., Georgetown, DE 19947",
      "latitude": 38.6874043,
      "longitude": -75.3822288
    },
    {
      "name": "Oxford House Jaylah",
      "address": "321 N. Bedford St., Georgetown, DE 19947",
      "latitude": 38.6943625,
      "longitude": -75.3912448
    },
    {
      "name": "Oxford House MacManus",
      "address": "1630 Wilmington Rd., Historic New Castle, DE 19720",
      "latitude": 39.6824684,
      "longitude": -75.557942
    },
    {
      "name": "Oxford House Alderaan",
      "address": "33141 Seahorse Place, Lewes, DE 19958",
      "latitude": 38.7381587,
      "longitude": -75.1730292
    },
    {
      "name": "Oxford House Nimoy",
      "address": "32844 Ocean Reach Drive, Lewes, DE 19958",
      "latitude": 38.7420671,
      "longitude": -75.17540029999999
    },
    {
      "name": "Oxford House Krall",
      "address": "31335 Red Mill Circle, Lewes, DE 19958",
      "latitude": 38.7472811,
      "longitude": -75.2033945
    },
    {
      "name": "Oxford House McCoy",
      "address": "302 Polk Ave., Milford, DE 19963",
      "latitude": 38.9072451,
      "longitude": -75.431309
    },
    {
      "name": "Oxford House New Castle",
      "address": "13 Glen Avenue, New Castle, DE 19720-3553",
      "latitude": 39.6864176,
      "longitude": -75.562945
    },
    {
      "name": "Oxford House Historic New Castle",
      "address": "805 W. 13th Street, New Castle, DE 19720-4941",
      "latitude": 39.6621629,
      "longitude": -75.58222789999999
    },
    {
      "name": "Oxford House Surak",
      "address": "14 Queen Avenue, New Castle, DE 19720",
      "latitude": 39.6873742,
      "longitude": -75.5598977
    },
    {
      "name": "Oxford House Emery",
      "address": "125 Emery Court, Newark, DE 19711-5930",
      "latitude": 39.7177504,
      "longitude": -75.7039607
    },
    {
      "name": "Oxford House Valorian",
      "address": "11 Parke Avenue, Newark, DE 19711-7220",
      "latitude": 39.7047415,
      "longitude": -75.690181
    },
    {
      "name": "Oxford House Woodshade",
      "address": "164 Brookside Blvd, Newark, DE 19713-2624",
      "latitude": 39.6699632,
      "longitude": -75.7168643
    },
    {
      "name": "Oxford House Chestnut Hill",
      "address": "482 W Chestnut Hill Rd, Newark, DE 19713-1102",
      "latitude": 39.6474491,
      "longitude": -75.7764609
    },
    {
      "name": "Oxford House Salem Woods",
      "address": "4 Risa Court, Newark, DE 19702-3753",
      "latitude": 39.6444639,
      "longitude": -75.7015979
    },
    {
      "name": "Oxford House Northfield",
      "address": "101 Edjil Dr, Newark, DE 19713",
      "latitude": 39.6529886,
      "longitude": -75.74702909999999
    },
    {
      "name": "Oxford House West Park Place",
      "address": "77 W Park Place, Newark, DE 19711-5232",
      "latitude": 39.6745506,
      "longitude": -75.75706740000001
    },
    {
      "name": "Oxford House Nottingham",
      "address": "303 West Main St, Newark, DE 19711",
      "latitude": 39.6858744,
      "longitude": -75.7645617
    },
    {
      "name": "Oxford House Dallam",
      "address": "101 Dallam Rd, Newark, DE 19711",
      "latitude": 39.682324,
      "longitude": -75.760339
    },
    {
      "name": "Oxford House Ritter",
      "address": "19 Ritter Lane, Newark, DE 19711",
      "latitude": 39.6716884,
      "longitude": -75.7556594
    },
    {
      "name": "Oxford House Orion",
      "address": "114 Scottfield Dr, Newark, DE 19713",
      "latitude": 39.6592641,
      "longitude": -75.7264051
    },
    {
      "name": "Oxford House Obi",
      "address": "758 S Chapel Street, Newark, DE 19713",
      "latitude": 39.6645037,
      "longitude": -75.73639949999999
    },
    {
      "name": "Oxford House Tanners Place",
      "address": "18 Bristlecone Court, Newark, DE 19702",
      "latitude": 39.609796,
      "longitude": -75.71629639999999
    },
    {
      "name": "Oxford House Hatfield",
      "address": "412 Tamra Cir., Newark, DE 19711",
      "latitude": 39.6823571,
      "longitude": -75.7399596
    },
    {
      "name": "Oxford House Crusher",
      "address": "3 Whitfield Rd., Newark, DE 19711",
      "latitude": 39.7211893,
      "longitude": -75.7100037
    },
    {
      "name": "Oxford House Newport",
      "address": "221 E Justis Street, Newport, DE 19804-2521",
      "latitude": 39.715254,
      "longitude": -75.606377
    },
    {
      "name": "Oxford House Rehoboth Bridge",
      "address": "6 Tulane Drive, Rehoboth Beach, DE 19971",
      "latitude": 38.73098050000001,
      "longitude": -75.1379604
    },
    {
      "name": "Oxford House Thornley",
      "address": "128 W Commerce St, Smyrna, DE 19977-1180",
      "latitude": 39.2989199,
      "longitude": -75.6091924
    },
    {
      "name": "Oxford House Gryffindor",
      "address": "107 Brandywine Blvd, Talleyville, DE 19803",
      "latitude": 39.8078394,
      "longitude": -75.54689789999999
    },
    {
      "name": "Oxford House Talleyville",
      "address": "108 Brandywine Blvd, Talleyville, DE 19803-1839",
      "latitude": 39.807491,
      "longitude": -75.5470711
    },
    {
      "name": "Oxford House Hedgeville",
      "address": "109 S Maryland Ave, Wilmington, DE 19804-1341",
      "latitude": 39.7281347,
      "longitude": -75.5870027
    },
    {
      "name": "Oxford House Brandywine",
      "address": "909 Lovering Ave, Wilmington, DE 19806",
      "latitude": 39.7534165,
      "longitude": -75.5519949
    },
    {
      "name": "Oxford House Emmett",
      "address": "1104 W. Newport Pike, Wilmington, DE 19804-3337",
      "latitude": 39.7142057,
      "longitude": -75.6204678
    },
    {
      "name": "Oxford House 8th Street",
      "address": "1409 W. 8th St., Wilmington, DE 19806-4609",
      "latitude": 39.7497724,
      "longitude": -75.5645596
    },
    {
      "name": "Oxford House Capitol Trail",
      "address": "3814 Old Capitol Trail, Wilmington, DE 19808-5834",
      "latitude": 39.7264321,
      "longitude": -75.6403113
    },
    {
      "name": "Oxford House Trinity North",
      "address": "705 N. Van Buren Street, Wilmington, DE 19806-3249",
      "latitude": 39.747617,
      "longitude": -75.56022750000001
    },
    {
      "name": "Oxford House Tilton Park",
      "address": "1319 W 8th St, Wilmington, DE 19806-4647",
      "latitude": 39.7491504,
      "longitude": -75.56268349999999
    },
    {
      "name": "Oxford House Silverside",
      "address": "1202 Harrison Ave, Wilmington, DE 19809",
      "latitude": 39.7825499,
      "longitude": -75.4859475
    },
    {
      "name": "Oxford House Grapevine",
      "address": "36 S Dupont Rd, Wilmington, DE 19805",
      "latitude": 39.7506129,
      "longitude": -75.5882006
    },
    {
      "name": "Oxford House Ironside",
      "address": "120 Lorewood Avenue, Wilmington, DE 19804",
      "latitude": 39.7294399,
      "longitude": -75.590777
    },
    {
      "name": "Oxford House Reed",
      "address": "1327 North Dupont Street, Wilmington, DE 19806",
      "latitude": 39.75634489999999,
      "longitude": -75.5639115
    },
    {
      "name": "Oxford House Lenape",
      "address": "901 N. Jackson St., Wilmington, DE 19802",
      "latitude": 39.7487688,
      "longitude": -75.5580329
    },
    {
      "name": "Oxford House Baynard",
      "address": "2107 Baynard Blvd, Wilmington, DE 19802",
      "latitude": 39.7584929,
      "longitude": -75.5445239
    },
    {
      "name": "Oxford House Ravenclaw",
      "address": "801 New Road, Wilmington, DE 19805",
      "latitude": 39.7400128,
      "longitude": -75.5957789
    },
    {
      "name": "Oxford House Franklin Place",
      "address": "2802 N Franklin St., Wilmington, DE 19802",
      "latitude": 39.7633841,
      "longitude": -75.5395657
    },
    {
      "name": "Oxford House Brighton",
      "address": "2102 Kirkwood Highway, Wilmington, DE 19805",
      "latitude": 39.7380204,
      "longitude": -75.60937419999999
    },
    {
      "name": "Oxford House Overlook Place",
      "address": "15 Overlook Ave, Wilmington, DE 19808",
      "latitude": 39.7240779,
      "longitude": -75.6415159
    },
    {
      "name": "Oxford House Athena Place",
      "address": "1013 W 8th Street, Wilmington, DE 19806",
      "latitude": 39.7477101,
      "longitude": -75.5592496
    },
    {
      "name": "Oxford House Ultron",
      "address": "1415 West 7th St., Wilmington, DE 19805",
      "latitude": 39.7490753,
      "longitude": -75.5651281
    },
    {
      "name": "Oxford House Tuvok",
      "address": "413 W. 21st Street, Wilmington, DE 19802",
      "latitude": 39.7565362,
      "longitude": -75.5437847
    },
    {
      "name": "Oxford House Montgomery II",
      "address": "1722 Montgomery Rd., Wilmington, DE 19805",
      "latitude": 39.7425021,
      "longitude": -75.6126933
    },
    {
      "name": "Oxford House La Forge",
      "address": "8 Petro Dr., Wilmington, DE 19804",
      "latitude": 39.7164945,
      "longitude": -75.6380157
    },
    {
      "name": "Oxford House Concord",
      "address": "2103 N. Washington St., Wilmington, DE 19802",
      "latitude": 39.7553676,
      "longitude": -75.54288629999999
    },
    {
      "name": "Oxford House Everdeen",
      "address": "1524 W. 7th Street, Wilmington, DE 19805",
      "latitude": 39.74925349999999,
      "longitude": -75.5664584
    },
    {
      "name": "Oxford House Norie",
      "address": "1510 Ridge Rd., Wilmington, DE 19809",
      "latitude": 39.7829002,
      "longitude": -75.4769602
    },
    {
      "name": "Oxford House Narada",
      "address": "1609 E. Newport Pike, Wilmington, DE 19804",
      "latitude": 39.716156,
      "longitude": -75.6040886
    },
    {
      "name": "Oxford House Gilmando",
      "address": "802 McKennans Church Rd., Wilmington, DE 19808",
      "latitude": 39.7469201,
      "longitude": -75.6593795
    },
    {
      "name": "Oxford House Vaxis",
      "address": "3714 Washington Ave., Wilmington, DE 19808",
      "latitude": 39.7283547,
      "longitude": -75.6353364
    },
    {
      "name": "Oxford House Janeway",
      "address": "1341 Linden St., Wilmington, DE 19805",
      "latitude": 39.7417424,
      "longitude": -75.56834580000002
    },
    {
      "name": "Oxford House Sarek",
      "address": "2411 Calf Run Dr., Wilmington, DE 19808",
      "latitude": 39.7334054,
      "longitude": -75.6532434
    },
    {
      "name": "Oxford House Kobayashi",
      "address": "9 Kenleigh Ct., Wilmington, DE 19808",
      "latitude": 39.7437038,
      "longitude": -75.6708328
    },
    {
      "name": "Oxford House Saavik",
      "address": "707 New Road, Wilmington, DE 19805",
      "latitude": 39.74006079999999,
      "longitude": -75.5945967
    }
  ],
  "ID": [
    {
      "name": "Oxford House Taylorview",
      "address": "3889 Taylorview Lane, Ammon, ID 83406",
      "latitude": 43.4611834,
      "longitude": -111.9760427
    },
    {
      "name": "Oxford House Lewiston",
      "address": "312 Prospect Blvd North, Lewiston, ID 83501",
      "latitude": 46.4208819,
      "longitude": -117.0297795
    },
    {
      "name": "Oxford House Burrell",
      "address": "830 Burrell Ave., Lewiston, ID 83501",
      "latitude": 46.3765034,
      "longitude": -116.9877341
    },
    {
      "name": "Oxford House Nez Perce",
      "address": "539 Park Street, Lewiston, ID 83501",
      "latitude": 46.4156442,
      "longitude": -117.0137544
    },
    {
      "name": "Oxford House Dauntless",
      "address": "1616 7th Avenue, Lewiston, ID 83501",
      "latitude": 46.4132614,
      "longitude": -117.0085793
    }
  ],
  "AZ": [
    {
      "name": "Oxford House Bullhead",
      "address": "3620 Gloria Ave., Bullhead City, AZ 86442",
      "latitude": 35.0516789,
      "longitude": -114.5855835
    },
    {
      "name": "Oxford House Casa Verde",
      "address": "1955 N. Maria Ave., Casa Grande, AZ 85122",
      "latitude": 32.9071786,
      "longitude": -111.7319817
    },
    {
      "name": "Oxford House Ocotillo",
      "address": "1294 E. Sunset Drive, Casa Grande, AZ 85122",
      "latitude": 32.8920515,
      "longitude": -111.7315858
    },
    {
      "name": "Oxford House Senita",
      "address": "1257 W. Chimes Tower Dr., Casa Grande, AZ 85122",
      "latitude": 32.9663119,
      "longitude": -111.7852445
    },
    {
      "name": "Oxford House Picacho",
      "address": "1282 E. Brenda Dr., Casa Grande, AZ 85122",
      "latitude": 32.8892493,
      "longitude": -111.7322379
    },
    {
      "name": "Oxford House Chandler",
      "address": "763 W. Flint St., Chandler, AZ 85225",
      "latitude": 33.3087994,
      "longitude": -111.8537611
    },
    {
      "name": "Oxford House Amberwood",
      "address": "2705 N. Nebraska St., Chandler, AZ 85225",
      "latitude": 33.3464005,
      "longitude": -111.8463785
    },
    {
      "name": "Oxford House Valyrian",
      "address": "873 Coy Drive, Flagstaff, AZ 86005",
      "latitude": 35.1668779,
      "longitude": -111.6725144
    },
    {
      "name": "Oxford House Gillenwater",
      "address": "3220 S. Gillenwater Dr., Flagstaff, AZ 86005",
      "latitude": 35.1728868,
      "longitude": -111.6754582
    },
    {
      "name": "Oxford House Elden",
      "address": "2406 E. 4th Avenue, Flagstaff, AZ 86004",
      "latitude": 35.2090368,
      "longitude": -111.6144165
    },
    {
      "name": "Oxford House Riordan",
      "address": "2412 E. 4th Ave., Flagstaff, AZ 86004",
      "latitude": 35.2090566,
      "longitude": -111.6142067
    },
    {
      "name": "Oxford House Aspen Valley",
      "address": "4101 E. Woodridge Ln, Flagstaff, AZ 86004",
      "latitude": 35.206465,
      "longitude": -111.594201
    },
    {
      "name": "Oxford House Copperstate",
      "address": "3350 S. Gillenwater Dr., Flagstaff, AZ 86005",
      "latitude": 35.1693699,
      "longitude": -111.6758774
    },
    {
      "name": "Oxford House Sitgreaves",
      "address": "1475 E. Appalachian Rd., Flagstaff, AZ 86004",
      "latitude": 35.2242105,
      "longitude": -111.6183057
    },
    {
      "name": "Oxford House Sun Devil West",
      "address": "5531 Boca Raton Rd., Glendale, AZ 85306",
      "latitude": 33.6110073,
      "longitude": -112.1786499
    },
    {
      "name": "Oxford House Sunset Palms",
      "address": "14410 N. 52nd Drive, Glendale, AZ 85306",
      "latitude": 33.6159701,
      "longitude": -112.1721142
    },
    {
      "name": "Oxford House Adsila",
      "address": "4338 W. Claremont St., Glendale, AZ 85301",
      "latitude": 33.5292367,
      "longitude": -112.1535703
    },
    {
      "name": "Oxford House Gila River",
      "address": "8023 W. Oregon Ave, Glendale, AZ 85303",
      "latitude": 33.5133271,
      "longitude": -112.2318584
    },
    {
      "name": "Oxford House Deer Valley",
      "address": "5357 W. Banff Lane, Glendale, AZ 85308",
      "latitude": 33.6193873,
      "longitude": -112.1759406
    },
    {
      "name": "Oxford House Rose Lane",
      "address": "4619 W. Morten Ave., Glendale, AZ 85301",
      "latitude": 33.5474475,
      "longitude": -112.1585104
    },
    {
      "name": "Oxford House Rising",
      "address": "5302 W. Pershing Ave., Glendale, AZ 85304",
      "latitude": 33.6058329,
      "longitude": -112.173131
    },
    {
      "name": "Oxford House Harmont",
      "address": "5124 W. Harmont Dr., Glendale, AZ 85302",
      "latitude": 33.5555642,
      "longitude": -112.1701503
    },
    {
      "name": "Oxford House Elation",
      "address": "5003 W Kaler Drive, Glendale, AZ 85301",
      "latitude": 33.54849470000001,
      "longitude": -112.1662586
    },
    {
      "name": "Oxford House Sweetwater",
      "address": "5640 W. Zoe Ella Way, Glendale, AZ 85306",
      "latitude": 33.6258912,
      "longitude": -112.1803271
    },
    {
      "name": "Oxford House Hammer",
      "address": "5208 W. Hearn Rd., Glendale, AZ 85306",
      "latitude": 33.6150276,
      "longitude": -112.1714926
    },
    {
      "name": "Oxford House Jupiter",
      "address": "7129 N. 47th Avenue, Glendale, AZ 85301",
      "latitude": 33.5404253,
      "longitude": -112.1597646
    },
    {
      "name": "Oxford House Tierra",
      "address": "4837 W. Bryce Avenue, Glendale, AZ 85301",
      "latitude": 33.5500048,
      "longitude": -112.1635828
    },
    {
      "name": "Oxford House Havasu",
      "address": "145 El Rio Drive, Lake Havasu City, AZ 86403",
      "latitude": 34.4808823,
      "longitude": -114.3239059
    },
    {
      "name": "Oxford House Palace Verde",
      "address": "2711 Plaza Verde, Lake Havasu City, AZ 86403",
      "latitude": 34.4706028,
      "longitude": -114.3031055
    },
    {
      "name": "Oxford House Nautical",
      "address": "2431 Tovar Lane, Lake Havasu City, AZ 86403",
      "latitude": 34.4867081,
      "longitude": -114.3204237
    },
    {
      "name": "Oxford House Wylde",
      "address": "3848 E. Pueblo ave, Mesa, AZ 85206",
      "latitude": 33.4012807,
      "longitude": -111.7476089
    },
    {
      "name": "Oxford House Mesa",
      "address": "835 N Spur Circle, Mesa, AZ 85203",
      "latitude": 33.4307215,
      "longitude": -111.800103
    },
    {
      "name": "Oxford House Sundance",
      "address": "5028 E. Dartmouth St., Mesa, AZ 85205",
      "latitude": 33.4288616,
      "longitude": -111.7225508
    },
    {
      "name": "Oxford House Meseto",
      "address": "708 W. Meseto Cir., Mesa, AZ 85210",
      "latitude": 33.3697295,
      "longitude": -111.8493057
    },
    {
      "name": "Oxford House Villa Roca",
      "address": "2865 E Fox St., Mesa, AZ 85213",
      "latitude": 33.4356871,
      "longitude": -111.7686853
    },
    {
      "name": "Oxford House Valencia Park",
      "address": "5012 E. Downing Street, Mesa, AZ 85205",
      "latitude": 33.4295223,
      "longitude": -111.7232482
    },
    {
      "name": "Oxford House Arizona",
      "address": "423 N. Dale, Mesa, AZ 85201",
      "latitude": 33.426538,
      "longitude": -111.865738
    },
    {
      "name": "Oxford House Desert Bloom",
      "address": "13153 N. 77th Dr, Peoria, AZ 85381",
      "latitude": 33.6046885,
      "longitude": -112.2251521
    },
    {
      "name": "Oxford House Westgreen",
      "address": "8503 W. Lawrence Ln, Peoria, AZ 85345",
      "latitude": 33.5633113,
      "longitude": -112.242337
    },
    {
      "name": "Oxford House Bloomfield",
      "address": "12709 N. 72nd Ave., Peoria, AZ 85381",
      "latitude": 33.6011084,
      "longitude": -112.2141612
    },
    {
      "name": "Oxford House Sonoran",
      "address": "2229 W. Aster Drive, Phoenix, AZ 85029",
      "latitude": 33.6023049,
      "longitude": -112.1068569
    },
    {
      "name": "Oxford House Diamondback",
      "address": "1904 W Oregon Ave, Phoenix, AZ 85015",
      "latitude": 33.514206,
      "longitude": -112.1001036
    },
    {
      "name": "Oxford House Tres Palms",
      "address": "5712 North 41st Ave, Phoenix, AZ 85019",
      "latitude": 33.5206506,
      "longitude": -112.1472364
    },
    {
      "name": "Oxford House Canyon Villa",
      "address": "6023 W. Indian School Rd., Phoenix, AZ 85033",
      "latitude": 33.4946818,
      "longitude": -112.1898971
    },
    {
      "name": "Oxford House Monterey",
      "address": "6231 W. Monterey Way, Phoenix, AZ 85033",
      "latitude": 33.4838827,
      "longitude": -112.1945777
    },
    {
      "name": "Oxford House Manzanita II",
      "address": "3104 W. Pleasant Ln., Phoenix, AZ 85041",
      "latitude": 33.3917006,
      "longitude": -112.1257194
    },
    {
      "name": "Oxford House Paradise Park",
      "address": "11633 N. 30th Place, Phoenix, AZ 85023",
      "latitude": 33.592909,
      "longitude": -112.0161902
    },
    {
      "name": "Oxford House Gelding",
      "address": "3637 W. Mandalay Dr., Phoenix, AZ 85053",
      "latitude": 33.6182273,
      "longitude": -112.1371011
    },
    {
      "name": "Oxford House Marconi",
      "address": "3166 W. Waltann Ln, Phoenix, AZ 85053",
      "latitude": 33.6282744,
      "longitude": -112.127722
    },
    {
      "name": "Oxford House Nisbet",
      "address": "4559 E. Carolina Dr., Phoenix, AZ 85032",
      "latitude": 33.6283578,
      "longitude": -111.982408
    },
    {
      "name": "Oxford House Venus",
      "address": "4236 W. Rancho Drive, Phoenix, AZ 85019",
      "latitude": 33.522454,
      "longitude": -112.1502636
    },
    {
      "name": "Oxford House Mercury",
      "address": "2010 W. Hazelwood St., Phoenix, AZ 85015",
      "latitude": 33.5043564,
      "longitude": -112.1018269
    },
    {
      "name": "Oxford House Winterfell",
      "address": "803 Danita St, Prescott, AZ 86301",
      "latitude": 34.5638261,
      "longitude": -112.4792733
    },
    {
      "name": "Oxford House Stormborn",
      "address": "2740 Ridge Rd., Prescott, AZ 86301",
      "latitude": 34.5886072,
      "longitude": -112.47173
    },
    {
      "name": "Oxford House Iron Springs",
      "address": "1930 W. Iron Springs Rd., Prescott, AZ 86305",
      "latitude": 34.5650192,
      "longitude": -112.490738
    },
    {
      "name": "Oxford House Yavapai",
      "address": "602 Douglas Ave., Prescott, AZ 86301",
      "latitude": 34.5728548,
      "longitude": -112.4737788
    },
    {
      "name": "Oxford House Highland Pines",
      "address": "1848 Oriental Ave., Prescott, AZ 86314",
      "latitude": 34.5761165,
      "longitude": -112.4398797
    },
    {
      "name": "Oxford House Terrace View",
      "address": "1617 Barmar Lane, Prescott, AZ 86301",
      "latitude": 34.5698765,
      "longitude": -112.4655673
    },
    {
      "name": "Oxford House Dorne",
      "address": "651 Flora St., Prescott, AZ 86301",
      "latitude": 34.5697277,
      "longitude": -112.4765726
    },
    {
      "name": "Oxford House Juniper Ridge",
      "address": "2285 Lakewood Dr., Prescott, AZ 86301",
      "latitude": 34.5797287,
      "longitude": -112.463069
    },
    {
      "name": "Oxford House Montezuma",
      "address": "449 Canyon Spings Rd., Prescott, AZ 86303",
      "latitude": 34.5327615,
      "longitude": -112.4746635
    },
    {
      "name": "Oxford House Prescott Valley",
      "address": "4321 Plainsman Way, Prescott Valley, AZ 86314",
      "latitude": 34.6048981,
      "longitude": -112.2987803
    },
    {
      "name": "Oxford House Granite Stone",
      "address": "6800 E. Horizon Lane, Prescott Valley, AZ 86314",
      "latitude": 34.5854046,
      "longitude": -112.3458632
    },
    {
      "name": "Oxford House Goldwater",
      "address": "4445 Carla Vista Dr., Prescott Valley, AZ 86314",
      "latitude": 34.6069756,
      "longitude": -112.3069066
    },
    {
      "name": "Oxford House Sekani",
      "address": "5201 Saddleback Dr., Prescott Valley, AZ 86314",
      "latitude": 34.6181323,
      "longitude": -112.3212267
    },
    {
      "name": "Oxford House Milestone",
      "address": "4631 N. Agua Fria, Prescott Valley, AZ 86314",
      "latitude": 34.6099647,
      "longitude": -112.332962
    },
    {
      "name": "Oxford House Enigma",
      "address": "5324 N. Stetson Dr., Prescott Valley, AZ 86314",
      "latitude": 34.6198973,
      "longitude": -112.3175943
    },
    {
      "name": "Oxford House Kachina",
      "address": "4860 N. Verde Vista Dr., Prescott Valley, AZ 86314",
      "latitude": 34.6132195,
      "longitude": -112.3291666
    },
    {
      "name": "Oxford House Riverrun",
      "address": "7919 E. Buena Vista Dr., Prescott Valley, AZ 86314",
      "latitude": 34.6077411,
      "longitude": -112.3263387
    },
    {
      "name": "Oxford House Mountain Valley",
      "address": "3276 N. Meadowlark Dr., Prescott Valley, AZ 86314",
      "latitude": 34.5903601,
      "longitude": -112.3499129
    },
    {
      "name": "Oxford House Dragonstone",
      "address": "4601 N. Stage Way Lane, Prescott Valley, AZ 86314",
      "latitude": 34.6092227,
      "longitude": -112.3409951
    },
    {
      "name": "Oxford House Arya",
      "address": "9169 E. Longhorn Dr., Prescott Valley, AZ 86314",
      "latitude": 34.6076865,
      "longitude": -112.3039495
    },
    {
      "name": "Oxford House Snow",
      "address": "5428 N. Long Rifle Rd., Prescott Valley, AZ 86314",
      "latitude": 34.6212701,
      "longitude": -112.3196433
    },
    {
      "name": "Oxford House Scottsdale",
      "address": "5611 E. Everett Dr., Scottsdale, AZ 85254",
      "latitude": 33.6193144,
      "longitude": -111.9599583
    },
    {
      "name": "Oxford House Horizon Park",
      "address": "15634 N. 55th Street, Scottsdale, AZ 85254",
      "latitude": 33.6292291,
      "longitude": -111.9625659
    },
    {
      "name": "Oxford House Sonrisa",
      "address": "4810 E. Andora Dr., Scottsdale, AZ 85254",
      "latitude": 33.6075364,
      "longitude": -111.977291
    },
    {
      "name": "Oxford House Monte Vista",
      "address": "7231 E. Cambridge Ave., Scottsdale, AZ 85257",
      "latitude": 33.4777477,
      "longitude": -111.9247168
    },
    {
      "name": "Oxford House Moonbeam",
      "address": "832 N. 78th Street, Scottsdale, AZ 85257",
      "latitude": 33.4569016,
      "longitude": -111.9124193
    },
    {
      "name": "Oxford House Andreas",
      "address": "148 Andrea Dr., Sierra Vista, AZ 85635",
      "latitude": 31.5562315,
      "longitude": -110.2879457
    },
    {
      "name": "Oxford House Cochise",
      "address": "1500 Andrea Dr., Sierra Vista, AZ 85635",
      "latitude": 31.5584052,
      "longitude": -110.2817556
    },
    {
      "name": "Oxford House Surprise",
      "address": "14439 W. Banff Ln., Surprise, AZ 85379",
      "latitude": 33.6185314,
      "longitude": -112.3710045
    },
    {
      "name": "Oxford House Mandalay",
      "address": "14338 W. Mandalay Lane, Surprise, AZ 85379",
      "latitude": 33.6160911,
      "longitude": -112.3699836
    },
    {
      "name": "Oxford House Tempe",
      "address": "1806 N. Bridalwreath, Tempe, AZ 85281",
      "latitude": 33.4498447,
      "longitude": -111.9224764
    },
    {
      "name": "Oxford House Riviera",
      "address": "4008 S. Heather Dr., Tempe, AZ 85282",
      "latitude": 33.3876218,
      "longitude": -111.9076981
    },
    {
      "name": "Oxford House Appaloosa",
      "address": "1921 E. Carver Road, Tempe, AZ 85284",
      "latitude": 33.3412716,
      "longitude": -111.9064405
    },
    {
      "name": "Oxford House Galaxy",
      "address": "4402 S. Juniper Street, Tempe, AZ 85282",
      "latitude": 33.3850985,
      "longitude": -111.9128915
    },
    {
      "name": "Oxford House Sentinel",
      "address": "450 S. Rosemont Blvd, Tucson, AZ 85711",
      "latitude": 32.2147798,
      "longitude": -110.8839269
    },
    {
      "name": "Oxford House Wilshire Heights",
      "address": "5621 East Beverly St, Tucson, AZ 85711",
      "latitude": 32.2093073,
      "longitude": -110.8727778
    },
    {
      "name": "Oxford House Ski Valley",
      "address": "9468 E. Barrudean Hills Street, Tucson, AZ 85710",
      "latitude": 32.2301447,
      "longitude": -110.7901233
    },
    {
      "name": "Oxford House Olive Branch",
      "address": "8509 East 18th Street, Tucson, AZ 85710",
      "latitude": 32.2109516,
      "longitude": -110.8108876
    },
    {
      "name": "Oxford House Desert Steps",
      "address": "6141 E. Sylvane St., Tucson, AZ 85711",
      "latitude": 32.2014565,
      "longitude": -110.8609242
    },
    {
      "name": "Oxford House Kokopelli",
      "address": "917 N. Catalina Ave., Tucson, AZ 85711",
      "latitude": 32.23312850000001,
      "longitude": -110.89932
    },
    {
      "name": "Oxford House Del Sol",
      "address": "3700 E 4th St, Tucson, AZ 85716",
      "latitude": 32.2305385,
      "longitude": -110.9129883
    },
    {
      "name": "Oxford House Presidio",
      "address": "925 N. 11th ave, Tucson, AZ 85705",
      "latitude": 32.2335958,
      "longitude": -110.9766984
    },
    {
      "name": "Oxford House Toronto",
      "address": "78631 E. Toronto St., Tucson, AZ 85730",
      "latitude": 32.1837557,
      "longitude": -110.8346554
    },
    {
      "name": "Oxford House Winterhaven",
      "address": "2916A E. Presidio Rd., Tucson, AZ 85716",
      "latitude": 32.2624743,
      "longitude": -110.9287489
    },
    {
      "name": "Oxford House Adobe",
      "address": "7480 N. Thornwood Rd., Tucson, AZ 85741",
      "latitude": 32.34250100000001,
      "longitude": -111.0428463
    },
    {
      "name": "Oxford House Foothills West",
      "address": "3752 W. Meadow Briar Drive, Tucson, AZ 85741",
      "latitude": 32.341989,
      "longitude": -111.045901
    },
    {
      "name": "Oxford House Agarita",
      "address": "2912 E. Presidio Rd., Tucson, AZ 85716",
      "latitude": 32.2628967,
      "longitude": -110.9287062
    },
    {
      "name": "Oxford House Mesquite",
      "address": "2916 E. Presidio Rd. Unit 2, Tucson, AZ 85716",
      "latitude": 32.2624743,
      "longitude": -110.9287489
    },
    {
      "name": "Oxford House Calise",
      "address": "4330 E. 3rd Street, Tucson, AZ 85711",
      "latitude": 32.2322999,
      "longitude": -110.9004405
    },
    {
      "name": "Oxford House Lemmon",
      "address": "5319 E. Linden Place, Tucson, AZ 85712",
      "latitude": 32.2454797,
      "longitude": -110.8788083
    },
    {
      "name": "Oxford House El Camino",
      "address": "2701 W. Highcliff Dr., Tucson, AZ 85745",
      "latitude": 32.2435717,
      "longitude": -111.0247341
    },
    {
      "name": "Oxford House Yuma",
      "address": "937 S. 12th Ave., Yuma, AZ 85364",
      "latitude": 32.710441,
      "longitude": -114.6340107
    }
  ],
  "CO": [
    {
      "name": "Oxford House Arvada",
      "address": "9702 W. 67th Place, Arvada, CO 80004",
      "latitude": 39.81915530000001,
      "longitude": -105.1064129
    },
    {
      "name": "Oxford House Everett Court",
      "address": "8905 W 63rd Ave, Arvada, CO 80004",
      "latitude": 39.81257110000001,
      "longitude": -105.0967752
    },
    {
      "name": "Oxford House Synergy",
      "address": "5716 W 66th Ave., Arvada, CO 80003",
      "latitude": 39.8162222,
      "longitude": -105.059726
    },
    {
      "name": "Oxford House Gray Drive",
      "address": "6860 Gray Drive, Arvada, CO 80003",
      "latitude": 39.8209421,
      "longitude": -105.0606047
    },
    {
      "name": "Oxford House Britton Park",
      "address": "6815 Eaton St, Arvada, CO 80003",
      "latitude": 39.82046,
      "longitude": -105.0589104
    },
    {
      "name": "Oxford House Majestic",
      "address": "8608 West 69th Place, Arvada, CO 80004",
      "latitude": 39.8221396,
      "longitude": -105.0929614
    },
    {
      "name": "Oxford House Luana",
      "address": "7857 Lamar St., Arvada, CO 80003",
      "latitude": 39.8385292,
      "longitude": -105.0668663
    },
    {
      "name": "Oxford House Arbor Lake",
      "address": "8280 Lamar Place, Arvadao, CO 80003",
      "latitude": 39.8478393,
      "longitude": -105.0661759
    },
    {
      "name": "Oxford House Kenton",
      "address": "1488 S Kenton St, Aurora, CO 80012-4120",
      "latitude": 39.6894058,
      "longitude": -104.8606725
    },
    {
      "name": "Oxford House Del Mar",
      "address": "17692 East Kenyon Drive, Aurora, CO 80013",
      "latitude": 39.6506506,
      "longitude": -104.7819791
    },
    {
      "name": "Oxford House Galena",
      "address": "1726 Galena Street, Aurora, CO 80010-2223",
      "latitude": 39.7443398,
      "longitude": -104.8691046
    },
    {
      "name": "Oxford House Andes",
      "address": "3704 S. Andes Way, Aurora, CO 80013-3549",
      "latitude": 39.6488655,
      "longitude": -104.7716701
    },
    {
      "name": "Oxford House Chambers",
      "address": "15604 E 13th Avenue, Aurora, CO 80011-7206",
      "latitude": 39.7372184,
      "longitude": -104.8063035
    },
    {
      "name": "Oxford House Sable",
      "address": "13806 E 25th Pl, Aurora, CO 80011-2826",
      "latitude": 39.7523249,
      "longitude": -104.8246225
    },
    {
      "name": "Oxford House Marley",
      "address": "1100 Kingston St., Aurora, CO 80010",
      "latitude": 39.7330642,
      "longitude": -104.8586191
    },
    {
      "name": "Oxford House Highlands 2",
      "address": "2025 S Pitkin St, Aurora, CO 80013",
      "latitude": 39.680063,
      "longitude": -104.7893791
    },
    {
      "name": "Oxford House Exposition Drive",
      "address": "13004 E Exposition Drive, Aurora, CO 80012",
      "latitude": 39.7017831,
      "longitude": -104.8373718
    },
    {
      "name": "Oxford House Old Del Mar",
      "address": "446 Oswego St., Aurora, CO 80010",
      "latitude": 39.7218878,
      "longitude": -104.8509572
    },
    {
      "name": "Oxford House Oakland Street",
      "address": "1442 S. Oakland St., Aurora, CO 80012",
      "latitude": 39.6902399,
      "longitude": -104.8512309
    },
    {
      "name": "Oxford House Woodgate",
      "address": "15005 E. Layton Place, Aurora, CO 80015",
      "latitude": 39.6279081,
      "longitude": -104.8136568
    },
    {
      "name": "Oxford House New Dawn 2",
      "address": "15073 E. Stanford Ave, Aurora, CO 80015",
      "latitude": 39.6350086,
      "longitude": -104.8124713
    },
    {
      "name": "Oxford House Seven Hills",
      "address": "19598 E. Floyd Ave., Aurora, CO 80013",
      "latitude": 39.6561256,
      "longitude": -104.7591812
    },
    {
      "name": "Oxford House Yampa",
      "address": "3705 S. Yampa Street, Aurora, CO 80013",
      "latitude": 39.64787380000001,
      "longitude": -104.7744507
    },
    {
      "name": "Oxford House Sand Creek",
      "address": "3117 Scranton Street, Aurora, CO 80011",
      "latitude": 39.7603899,
      "longitude": -104.8413573
    },
    {
      "name": "Oxford House Kadell",
      "address": "12354 E. Ceder Cir., Aurora, CO 800012",
      "latitude": 39.7294319,
      "longitude": -104.8319195
    },
    {
      "name": "Oxford House Broomfield",
      "address": "121 Main Street, Broomfield, CO 80020",
      "latitude": 39.9166684,
      "longitude": -105.0722012
    },
    {
      "name": "Oxford House Midway",
      "address": "12644 Meade St., Broomfield, CO 80020",
      "latitude": 39.927447,
      "longitude": -105.0358955
    },
    {
      "name": "Oxford House Adams Drive",
      "address": "6109 South Adams Drive, Centennial, CO 80121",
      "latitude": 39.6066861,
      "longitude": -104.9488787
    },
    {
      "name": "Oxford House Colorado Court",
      "address": "7211 South Colorado Ct., Centennial, CO 80211",
      "latitude": 39.5858898,
      "longitude": -104.9411441
    },
    {
      "name": "Oxford House Colorado Springs",
      "address": "2213 Greenwich Circle W, Colorado Springs, CO 80909-1621",
      "latitude": 38.8660503,
      "longitude": -104.7509318
    },
    {
      "name": "Oxford House Murray",
      "address": "1921 Carlton Ave, Colorado Springs, CO 80909-2169",
      "latitude": 38.8603363,
      "longitude": -104.7667788
    },
    {
      "name": "Oxford House Animus",
      "address": "1010 N Murray Blvd, Colorado Springs, CO 80915-2705",
      "latitude": 38.8478085,
      "longitude": -104.7483464
    },
    {
      "name": "Oxford House Garden of the Gods",
      "address": "1215 Amstel Drive, Colorado Springs, CO 80907",
      "latitude": 38.8868611,
      "longitude": -104.844071
    },
    {
      "name": "Oxford House Acacia",
      "address": "1311 Acacia Drive, Colorado Springs, CO 80907",
      "latitude": 38.8879959,
      "longitude": -104.8010363
    },
    {
      "name": "Oxford House San Miguel",
      "address": "4444 E San Miguel Street, Colorado Springs, CO 80915",
      "latitude": 38.8473619,
      "longitude": -104.7442431
    },
    {
      "name": "Oxford House Jewel II",
      "address": "425 West Cheyenne Blvd, Colorado Springs, CO 80905",
      "latitude": 38.8036042,
      "longitude": -104.8341608
    },
    {
      "name": "Oxford House Dublin",
      "address": "6454 Wicklow Circle W, Colorado Springs, CO 80918",
      "latitude": 38.9250046,
      "longitude": -104.8029042
    },
    {
      "name": "Oxford House McArthur",
      "address": "2021 McArthur Ave, Colorado Springs, CO 80909",
      "latitude": 38.8603812,
      "longitude": -104.7848667
    },
    {
      "name": "Oxford House Bluestem",
      "address": "5366 Bluestem Drive, Colorado Springs, CO 80917",
      "latitude": 38.8985172,
      "longitude": -104.7280088
    },
    {
      "name": "Oxford House Briargate",
      "address": "2830 Doromus Court, Colorado Springs, CO 80920",
      "latitude": 38.9600017,
      "longitude": -104.7703939
    },
    {
      "name": "Oxford House Jubilee",
      "address": "6409 Barrel Race Drive, Colorado Springs, CO 80923",
      "latitude": 38.9229576,
      "longitude": -104.7435598
    },
    {
      "name": "Oxford House Uintah",
      "address": "1123 N. Meade Ave, Colorado Springs, CO 80909",
      "latitude": 38.8492282,
      "longitude": -104.7952834
    },
    {
      "name": "Oxford House Virginia Avenue",
      "address": "2911 Virginia Ave, Colorado Springs, CO 80907",
      "latitude": 38.8725564,
      "longitude": -104.806453
    },
    {
      "name": "Oxford House Maizeland",
      "address": "2318 Wold Ave, Colorado Springs, CO 80909",
      "latitude": 38.8665259,
      "longitude": -104.7540751
    },
    {
      "name": "Oxford House Elevation",
      "address": "3607 Windflower Cir., Colorado Springs, CO 80918",
      "latitude": 38.8924057,
      "longitude": -104.7652013
    },
    {
      "name": "Oxford House Gemstone",
      "address": "7407 Montarbor Dr., Colorado Springs, CO 80918",
      "latitude": 38.9243065,
      "longitude": -104.7556717
    },
    {
      "name": "Oxford House Eve",
      "address": "2515 Brenton Dr., Colorado Springs, CO 80918",
      "latitude": 38.9161437,
      "longitude": -104.7821543
    },
    {
      "name": "Oxford House Woodmen",
      "address": "8450 Ilex Dr., Colorado Springs, CO 80920",
      "latitude": 38.9539377,
      "longitude": -104.7481063
    },
    {
      "name": "Oxford House Adam",
      "address": "1810 Pima Dr., Colorado Springs, CO 80915",
      "latitude": 38.8581858,
      "longitude": -104.7081172
    },
    {
      "name": "Oxford House Serenity",
      "address": "6435 Pahokee Dr., Colorado Springs, CO 80915",
      "latitude": 38.8586234,
      "longitude": -104.7073699
    },
    {
      "name": "Oxford House Gravity",
      "address": "5930 Flintridge Dr., Colorado Springs, CO 80918",
      "latitude": 38.917408,
      "longitude": -104.7650842
    },
    {
      "name": "Oxford House Betterment",
      "address": "4925 Garden Ranch Dr., Colorado Springs, CO 80918",
      "latitude": 38.9026426,
      "longitude": -104.7794193
    },
    {
      "name": "Oxford House Tiger Lily",
      "address": "8192 Old Exchange Dr., Colorado Springs, CO 80920",
      "latitude": 38.9561257,
      "longitude": -104.7633284
    },
    {
      "name": "Oxford House Euphoria",
      "address": "2436 N. Cascade Avenue, Colorado Springs, CO 80907",
      "latitude": 38.8683303,
      "longitude": -104.8237373
    },
    {
      "name": "Oxford House Vista Ridge",
      "address": "7367 Indian River Dr., Colorado Springs, CO 80923",
      "latitude": 38.9214417,
      "longitude": -104.6901683
    },
    {
      "name": "Oxford House Elk Mountain",
      "address": "982 Langford Dr., Craig, CO 81625",
      "latitude": 40.5247554,
      "longitude": -107.5356069
    },
    {
      "name": "Oxford House Weebs",
      "address": "364 Leon Street, Delta, CO 81416",
      "latitude": 38.7422539,
      "longitude": -108.0619731
    },
    {
      "name": "Oxford House Osceola",
      "address": "180 Osceola St., Denver, CO 80219-1227",
      "latitude": 39.7195557,
      "longitude": -105.0380935
    },
    {
      "name": "Oxford House Kalamath",
      "address": "4105 Kalamath Street, Denver, CO 80211-2521",
      "latitude": 39.7732956,
      "longitude": -105.000837
    },
    {
      "name": "Oxford House Welby",
      "address": "8510 Rainbow Ave, Denver, CO 80229-5134",
      "latitude": 39.8505472,
      "longitude": -104.9631397
    },
    {
      "name": "Oxford House Evans Ave",
      "address": "2319 S Perry St, Denver, CO 80219",
      "latitude": 39.6746163,
      "longitude": -105.0399024
    },
    {
      "name": "Oxford House Mexico",
      "address": "3200 E Mexico Ave., Denver, CO 80210",
      "latitude": 39.68553199999999,
      "longitude": -104.9497914
    },
    {
      "name": "Oxford House Canosa",
      "address": "736 South Canosa Street, Denver, CO 80219",
      "latitude": 39.7032111,
      "longitude": -105.0189637
    },
    {
      "name": "Oxford House Monaco",
      "address": "6662 E Dickenson Place, Denver, CO 80224",
      "latitude": 39.6724116,
      "longitude": -104.9116692
    },
    {
      "name": "Oxford House Zurich",
      "address": "3029 S. Zurich Court, Denver, CO 80236",
      "latitude": 39.6586758,
      "longitude": -105.0521113
    },
    {
      "name": "Oxford House Elk House",
      "address": "5492 Elkhart St., Denver, CO 80239",
      "latitude": 39.7934992,
      "longitude": -104.8137523
    },
    {
      "name": "Oxford House Alaina Grace",
      "address": "477 S. Jasmine Street, Denver, CO 80224",
      "latitude": 39.7079454,
      "longitude": -104.9190754
    },
    {
      "name": "Oxford House Firestone",
      "address": "5984 Stagecoach Avenue, Firestone, CO 80504-5585",
      "latitude": 40.1543711,
      "longitude": -104.9423391
    },
    {
      "name": "Oxford House Ava Grace",
      "address": "801 Columbia Rd, Fort Collins, CO 80525",
      "latitude": 40.5572227,
      "longitude": -105.0659932
    },
    {
      "name": "Oxford House Fort Collins",
      "address": "1806 Suffolk Court, Fort Collins, CO 80526",
      "latitude": 40.5639291,
      "longitude": -105.11564
    },
    {
      "name": "Oxford House Omega",
      "address": "3219 Eagle Dr., Fort Collins, CO 80526",
      "latitude": 40.5432064,
      "longitude": -105.0837584
    },
    {
      "name": "Oxford House Waldie",
      "address": "1719 Hull Street, Fort Collins, CO 80526",
      "latitude": 40.5492775,
      "longitude": -105.1091066
    },
    {
      "name": "Oxford House Lotus Louise",
      "address": "3225 Silverthorne Dr., Fort Collins, CO 80525",
      "latitude": 40.5437644,
      "longitude": -105.0924316
    },
    {
      "name": "Oxford House Stellar",
      "address": "725 Tyler Street, Fort Collins, CO 80521",
      "latitude": 40.5790098,
      "longitude": -105.1229262
    },
    {
      "name": "Oxford House Reverie",
      "address": "1912 Kingborough Dr., Fort Collins, CO 80526",
      "latitude": 40.5629394,
      "longitude": -105.1116659
    },
    {
      "name": "Oxford House Mountain View",
      "address": "2300 Plains Court, Ft. Collins, CO 80521-1560",
      "latitude": 40.5952856,
      "longitude": -105.1183316
    },
    {
      "name": "Oxford House Cleo",
      "address": "903 Grand Ave., Grand Junction, CO 81504",
      "latitude": 39.0700623,
      "longitude": -108.5574222
    },
    {
      "name": "Oxford House Grand Valley",
      "address": "530 Grand Valley Dr., Grand Junction, CO 81504",
      "latitude": 39.0821753,
      "longitude": -108.4880917
    },
    {
      "name": "Oxford House Fair Haven",
      "address": "546 31 Road, Grand Junction, CO 81504",
      "latitude": 39.0838761,
      "longitude": -108.4781635
    },
    {
      "name": "Oxford House Grand Junction",
      "address": "737 27 Rd., Grand Junction, CO 81506",
      "latitude": 39.1113219,
      "longitude": -108.5527401
    },
    {
      "name": "Oxford House Gunny",
      "address": "585 N. 25th Street, Grand Junction, CO 81501",
      "latitude": 39.0731336,
      "longitude": -108.5365537
    },
    {
      "name": "Oxford House Bookcliff",
      "address": "918 North 7th Street, Grand Junction, CO 81501",
      "latitude": 39.0757656,
      "longitude": -108.5606566
    },
    {
      "name": "Oxford House Das Gluck",
      "address": "1709 Laveta Street, Grand Junction, CO 81503",
      "latitude": 39.0497059,
      "longitude": -108.5638897
    },
    {
      "name": "Oxford House Eminence",
      "address": "1701 Orchard Ave., Grand Junction, CO 81501",
      "latitude": 39.0843591,
      "longitude": -108.5452283
    },
    {
      "name": "Oxford House Resolution",
      "address": "2824 Hall Avenue, Grand Junction, CO 81501",
      "latitude": 39.0843401,
      "longitude": -108.5293651
    },
    {
      "name": "Oxford House Kinship",
      "address": "330 Epps Drive, Grand Junction, CO 81501",
      "latitude": 39.0806787,
      "longitude": -108.5159623
    },
    {
      "name": "Oxford House Union",
      "address": "1402 10th Avenue, Greeley, CO 80631-4724",
      "latitude": 40.4168508,
      "longitude": -104.6941588
    },
    {
      "name": "Oxford House Miller",
      "address": "1414 32nd Avenue, Greeley, CO 80634",
      "latitude": 40.4168367,
      "longitude": -104.7312775
    },
    {
      "name": "Oxford House Divinity",
      "address": "2212 29th Ave, Greeley, CO 80634",
      "latitude": 40.3995788,
      "longitude": -104.7293759
    },
    {
      "name": "Oxford House Lykke",
      "address": "2014 7th Avenue, Greeley, CO 80631",
      "latitude": 40.4053281,
      "longitude": -104.6889155
    },
    {
      "name": "Oxford House Arkansas Valley",
      "address": "610 Lawrence Ave., La Junta, CO 81050",
      "latitude": 37.9823604,
      "longitude": -103.5534618
    },
    {
      "name": "Oxford House Alameda",
      "address": "13222 W Alaska Place, Lakewood, CO 80209",
      "latitude": 39.7078304,
      "longitude": -105.148533
    },
    {
      "name": "Oxford House Field",
      "address": "2475 Field St., Lakewood, CO 80215",
      "latitude": 39.752205,
      "longitude": -105.0985971
    },
    {
      "name": "Oxford House Southern Gables",
      "address": "2220 S. Estes Street, Lakewood, CO 80227",
      "latitude": 39.6763301,
      "longitude": -105.0948797
    },
    {
      "name": "Oxford House Cloverdale",
      "address": "1673 S. Eaton St, Lakewood, CO 80232",
      "latitude": 39.68656259999999,
      "longitude": -105.0592576
    },
    {
      "name": "Oxford House April",
      "address": "8679 W. Cottontail Dr., Lakewood, CO 80232",
      "latitude": 39.6926317,
      "longitude": -105.0942174
    },
    {
      "name": "Oxford House Apache",
      "address": "6615 S Apache Drive, Littleton, CO 80210-3813",
      "latitude": 39.5955497,
      "longitude": -104.9906209
    },
    {
      "name": "Oxford House Littleton",
      "address": "310 E Geddes Ave, Littleton, CO 80122-1129",
      "latitude": 39.5844512,
      "longitude": -104.984917
    },
    {
      "name": "Oxford House Washington Street",
      "address": "7112 S Washington Street, Littleton, CO 80122",
      "latitude": 39.5876264,
      "longitude": -104.9781551
    },
    {
      "name": "Oxford House Longmont",
      "address": "136 Dawson Pl, Longmont, CO 80504-2933",
      "latitude": 40.1843913,
      "longitude": -105.0890563
    },
    {
      "name": "Oxford House Collyer",
      "address": "2429 Collyer St., Longmont, CO 80501",
      "latitude": 40.2017422,
      "longitude": -105.0987392
    },
    {
      "name": "Oxford House Miracle",
      "address": "2317 Emery Place, Longmont, CO 80501",
      "latitude": 40.2003714,
      "longitude": -105.1011144
    },
    {
      "name": "Oxford House Loveland",
      "address": "2241 Albany Ct., Loveland, CO 80538",
      "latitude": 40.415342,
      "longitude": -105.0574082
    },
    {
      "name": "Oxford House Cleveland Avenue",
      "address": "1624 Cleveland Ave, Loveland, CO 80538",
      "latitude": 40.4105024,
      "longitude": -105.0740535
    },
    {
      "name": "Oxford House Edgewood Drive",
      "address": "213 Edgewood Drive, Loveland, CO 80538",
      "latitude": 40.4451402,
      "longitude": -105.0751076
    },
    {
      "name": "Oxford House Woodmare",
      "address": "3714 Logan Dr., Loveland, CO 80538",
      "latitude": 40.4304936,
      "longitude": -105.0872314
    },
    {
      "name": "Oxford House Oasis II",
      "address": "2510 Fairplay Dr., Loveland, CO 80538",
      "latitude": 40.4176387,
      "longitude": -105.1083255
    },
    {
      "name": "Oxford House Pandora",
      "address": "2114 S. Douglas Ave., Loveland, CO 80537",
      "latitude": 40.3722591,
      "longitude": -105.0898576
    },
    {
      "name": "Oxford House Norte",
      "address": "1724 Del Norte Ave., Loveland, CO 80538",
      "latitude": 40.41063880000001,
      "longitude": -105.1047685
    },
    {
      "name": "Oxford House Manitou Springs",
      "address": "105 Pawnee Avenue, Manitou Springs, CO 80829",
      "latitude": 38.8562021,
      "longitude": -104.9138135
    },
    {
      "name": "Oxford House Black Canyon",
      "address": "1104 Sunnyside Dr., Montrose, CO 81401",
      "latitude": 38.4742217,
      "longitude": -107.8578546
    },
    {
      "name": "Oxford House San Juan",
      "address": "1124 Ridge St., Montrose, CO 81401",
      "latitude": 38.4781527,
      "longitude": -107.8584099
    },
    {
      "name": "Oxford House Wildfire",
      "address": "4318 Wilderness Trail, Pueblo, CO 81008",
      "latitude": 38.3196349,
      "longitude": -104.631065
    },
    {
      "name": "Oxford House Northmoor",
      "address": "2100 Northmoor Terrace, Pueblo, CO 81008",
      "latitude": 38.3062152,
      "longitude": -104.6339233
    },
    {
      "name": "Oxford House Norwich II",
      "address": "2719 Willis Blvd, Pueblo, CO 81003",
      "latitude": 38.29576600000001,
      "longitude": -104.6418673
    },
    {
      "name": "Oxford House Sunset Park",
      "address": "39 Drake St., Pueblo, CO 81005",
      "latitude": 38.2449764,
      "longitude": -104.6521094
    },
    {
      "name": "Oxford House Highland Park",
      "address": "3506 Raccoon Lane, Pueblo, CO 81005",
      "latitude": 38.2113679,
      "longitude": -104.6527321
    },
    {
      "name": "Oxford House Starlite",
      "address": "2221 Cartier Dr., Pueblo, CO 81005",
      "latitude": 38.2243272,
      "longitude": -104.6660018
    },
    {
      "name": "Oxford House City Park",
      "address": "901 W. Pitkin Avenue, Pueblo, CO 80014",
      "latitude": 38.2648196,
      "longitude": -104.6349849
    },
    {
      "name": "Oxford House Eagles Nest",
      "address": "9 Remington Ct, Pueblo, CO 81008",
      "latitude": 38.3188754,
      "longitude": -104.6284105
    },
    {
      "name": "Oxford House Moonlight",
      "address": "2222 Norman Lane, Pueblo, CO 81005",
      "latitude": 38.2236593,
      "longitude": -104.6647491
    },
    {
      "name": "Oxford House Red Creek",
      "address": "213 Fordham Cir., Pueblo, CO 81005",
      "latitude": 38.2431794,
      "longitude": -104.657115
    },
    {
      "name": "Oxford House Sunfire",
      "address": "6 Sundance Ct., Pueblo, CO 81008",
      "latitude": 38.3187594,
      "longitude": -104.6322115
    },
    {
      "name": "Oxford House Thornton",
      "address": "11042 Clermont Dr, Thornton, CO 80233-5419",
      "latitude": 39.8969612,
      "longitude": -104.9337976
    },
    {
      "name": "Oxford House Riverdale",
      "address": "10654 Eudora Way, Thornton, CO 80233",
      "latitude": 39.8895939,
      "longitude": -104.9286049
    },
    {
      "name": "Oxford House Woodglen",
      "address": "4316 E. 113th Pl., Thornton, CO 80233",
      "latitude": 39.901698,
      "longitude": -104.937813
    },
    {
      "name": "Oxford House Skylake",
      "address": "12062 Forest St., Thornton, CO 80241",
      "latitude": 39.9154156,
      "longitude": -104.9267338
    },
    {
      "name": "Oxford House Pecos",
      "address": "1240 West 72nd Avenue, Westminster, CO 80221-2724",
      "latitude": 39.82708510000001,
      "longitude": -105.0018904
    },
    {
      "name": "Oxford House Intrepid",
      "address": "4650 Newland Street, Wheat Ridge, CO 80033",
      "latitude": 39.7808878,
      "longitude": -105.0694867
    }
  ],
  "IL": [
    {
      "name": "Oxford House Fox Valley 2",
      "address": "519 Iowa Street, Auroa, IL 60506",
      "latitude": 41.767823,
      "longitude": -88.32265919999999
    },
    {
      "name": "Oxford House Natalie",
      "address": "322 Stuart Avenue, Aurora, IL 60542",
      "latitude": 41.761447,
      "longitude": -88.2902549
    },
    {
      "name": "Oxford House Tan",
      "address": "725 Audrey Ave., Aurora, IL 60505",
      "latitude": 41.7906188,
      "longitude": -88.2981291
    },
    {
      "name": "Oxford House Linge",
      "address": "511 Ashland Avenue, Aurora, IL 60505",
      "latitude": 41.7373505,
      "longitude": -88.3121326
    },
    {
      "name": "Oxford House Belleville 2",
      "address": "4918 W. Main St., Belleville, IL 62226-4725",
      "latitude": 38.5437075,
      "longitude": -90.0286611
    },
    {
      "name": "Oxford House Belleville 3",
      "address": "4920 W. Main Street, Belleville, IL 62226",
      "latitude": 38.5437896,
      "longitude": -90.02884340000001
    },
    {
      "name": "Oxford House Bloomingdale",
      "address": "304 Sutherland Lane, Bloomingdale, IL 60108",
      "latitude": 41.941661,
      "longitude": -88.07996159999999
    },
    {
      "name": "Oxford House West Bloomington",
      "address": "704 W. Scott Street, Bloomington, IL 61701",
      "latitude": 40.4885061,
      "longitude": -89.0005802
    },
    {
      "name": "Oxford House Eva",
      "address": "702 W. Scott Street, Bloomington, IL 61701",
      "latitude": 40.48853159999999,
      "longitude": -89.0005434
    },
    {
      "name": "Oxford House Meacham",
      "address": "2207 Hedgewood Dr., Bloomington, IL 61704",
      "latitude": 40.5085155,
      "longitude": -88.9365602
    },
    {
      "name": "Oxford House DAmouri",
      "address": "5441 S. Wood St, Chicago, IL 60609",
      "latitude": 41.7946059,
      "longitude": -87.6691907
    },
    {
      "name": "Oxford House Windy City",
      "address": "6122 W. Henderson St., Chicago, IL 60634",
      "latitude": 41.9413654,
      "longitude": -87.7798169
    },
    {
      "name": "Oxford House Fletcher",
      "address": "13 Briarcliffe Dr., Collinsville, IL 62234",
      "latitude": 38.6713041,
      "longitude": -90.00995089999999
    },
    {
      "name": "Oxford House Busan",
      "address": "801 Victory Dr., Collinsville, IL 62234",
      "latitude": 38.6906149,
      "longitude": -89.979996
    },
    {
      "name": "Oxford House Childers",
      "address": "7620 Brookhaven Ave., Darien, IL 60561",
      "latitude": 41.7488199,
      "longitude": -87.970959
    },
    {
      "name": "Oxford House Radiance",
      "address": "1009 Belair Dr., Darien, IL 60561",
      "latitude": 41.7561358,
      "longitude": -87.96977600000001
    },
    {
      "name": "Oxford House New Cadence",
      "address": "3948 N. Burchard Dr., Decatur, IL 62526",
      "latitude": 39.8935329,
      "longitude": -88.9683323
    },
    {
      "name": "Oxford House Westlawn",
      "address": "417 S. Westlawn Ave., Decatur, IL 62522",
      "latitude": 39.8376047,
      "longitude": -88.9903722
    },
    {
      "name": "Oxford House Ardor",
      "address": "156 Pekin Ave, East Peoria, IL 61611",
      "latitude": 40.6630544,
      "longitude": -89.58149870000001
    },
    {
      "name": "Oxford House Elk Grove",
      "address": "245 Tanglewood Ct., Elk Grove Village, IL 60007",
      "latitude": 42.0177242,
      "longitude": -87.9865117
    },
    {
      "name": "Oxford House Crest",
      "address": "8904 Crest Drive, Fairview Heights, IL 62208",
      "latitude": 38.613867,
      "longitude": -90.0432824
    },
    {
      "name": "Oxford House Dobby",
      "address": "1078 N. Broad Street, Galesburg, IL 61401",
      "latitude": 40.9602617,
      "longitude": -90.3712678
    },
    {
      "name": "Oxford House Braden",
      "address": "1716 Cleveland Blvd, Granite City, IL 62040-4403",
      "latitude": 38.6993362,
      "longitude": -90.1546372
    },
    {
      "name": "Oxford House Briarwood",
      "address": "2226 State Street, Granite City, IL 62040-4727",
      "latitude": 38.7044737,
      "longitude": -90.1432725
    },
    {
      "name": "Oxford House Iowa",
      "address": "2502 Iowa, Granite City, IL 62040",
      "latitude": 38.7066719,
      "longitude": -90.1353357
    },
    {
      "name": "Oxford House Missouri",
      "address": "2224 Missouri Ave, Granite City, IL 62040-3224",
      "latitude": 38.7105515,
      "longitude": -90.1539423
    },
    {
      "name": "Oxford House Lee",
      "address": "2300 Delmar Ave, Granite City, IL 62040",
      "latitude": 38.7068815,
      "longitude": -90.1433739
    },
    {
      "name": "Oxford House North Iowa",
      "address": "2825 Iowa St, Granite City, IL 62040-4906",
      "latitude": 38.7127537,
      "longitude": -90.1286487
    },
    {
      "name": "Oxford House Epitaph",
      "address": "25 Bermuda Lane, Granite City, IL 62040",
      "latitude": 38.7271778,
      "longitude": -90.10522000000002
    },
    {
      "name": "Oxford House Legacy Place",
      "address": "2412 Pine St., Granite City, IL 62040",
      "latitude": 38.7353413,
      "longitude": -90.103412
    },
    {
      "name": "Oxford House Trident",
      "address": "2604 Delmar Avenue, Granite City, IL 62040",
      "latitude": 38.7118411,
      "longitude": -90.13708539999999
    },
    {
      "name": "Oxford House Transcend",
      "address": "2130 Johnson Rd., Granite City, IL 62040",
      "latitude": 38.7229584,
      "longitude": -90.1107361
    },
    {
      "name": "Oxford House Harwood Heights",
      "address": "4317 N. Newland Avenue, Harwood Heights, IL 60527",
      "latitude": 41.9597798,
      "longitude": -87.80106409999999
    },
    {
      "name": "Oxford House Kinsyn",
      "address": "315 Stone St, Joliet, IL 60435-6342",
      "latitude": 41.5346675,
      "longitude": -88.0905575
    },
    {
      "name": "Oxford House Mykie",
      "address": "224 Fairbanks Ave, Joliet, IL 60432",
      "latitude": 41.52974580000001,
      "longitude": -88.0488972
    },
    {
      "name": "Oxford House Upper Bluff",
      "address": "510 Jersey Avenue, Joliet, IL 60435",
      "latitude": 41.5310627,
      "longitude": -88.09501809999999
    },
    {
      "name": "Oxford House Novak",
      "address": "1220 Caton Ave., Joliet, IL 60435",
      "latitude": 41.5344892,
      "longitude": -88.11355979999999
    },
    {
      "name": "Oxford House Bjorn",
      "address": "816 Glenwood Ave., Joliet, IL 60435",
      "latitude": 41.5302569,
      "longitude": -88.10295459999999
    },
    {
      "name": "Oxford House Neo Ashur",
      "address": "711 Campbell St., Joliet, IL 60435",
      "latitude": 41.5271594,
      "longitude": -88.0997115
    },
    {
      "name": "Oxford House Lawrenceville 2",
      "address": "1008 12th Street, Lawrenceville, IL 62439",
      "latitude": 38.7264815,
      "longitude": -87.68294089999999
    },
    {
      "name": "Oxford House Assiduum",
      "address": "1770 Chatam Rd., Leland Grove, IL 62704",
      "latitude": 39.7791996,
      "longitude": -89.6865789
    },
    {
      "name": "Oxford House Madigan",
      "address": "219 Rhoads Ave., Lincoln, IL 62656",
      "latitude": 40.1628238,
      "longitude": -89.3560936
    },
    {
      "name": "Oxford House Leto",
      "address": "2500 Old Tavern Rd., Lisle, IL 60532",
      "latitude": 41.8007721,
      "longitude": -88.102309
    },
    {
      "name": "Oxford House Oakley",
      "address": "4401 Fender Road, Lisle, IL 60532",
      "latitude": 41.8051941,
      "longitude": -88.1106417
    },
    {
      "name": "Oxford House Lisle River",
      "address": "5601 Riverview Dr., Lisle, IL 60532",
      "latitude": 41.7836143,
      "longitude": -88.075012
    },
    {
      "name": "Oxford House Arboretum",
      "address": "1907 Lacey Ave., Lisle, IL 60532",
      "latitude": 41.8023885,
      "longitude": -88.09001889999999
    },
    {
      "name": "Oxford House Wade",
      "address": "4401 Woodglen Lane, Mt. Vernon, IL 62864",
      "latitude": 38.3251607,
      "longitude": -88.9492234
    },
    {
      "name": "Oxford House Nobu",
      "address": "520 Cherrywood Dr., N. Aurora, IL 60542",
      "latitude": 41.809978,
      "longitude": -88.3393591
    },
    {
      "name": "Oxford House Tristan",
      "address": "2104 Grove Ave., N. Chicago, IL 60064",
      "latitude": 42.3208893,
      "longitude": -87.851599
    },
    {
      "name": "Oxford House Victus",
      "address": "500 N. Grove Street, Normal, IL 61761",
      "latitude": 40.5154921,
      "longitude": -89.00624359999999
    },
    {
      "name": "Oxford House Statuo",
      "address": "3033 Ann Drive, Normal, IL 61704",
      "latitude": 40.4991893,
      "longitude": -88.92497329999999
    },
    {
      "name": "Oxford House Volente",
      "address": "5946 N. Roxbury Ln., Peoria, IL 61614",
      "latitude": 40.7598954,
      "longitude": -89.6087932
    },
    {
      "name": "Oxford House Penman",
      "address": "6616 N. Greenmont Rd., Peoria, IL 61614",
      "latitude": 40.768741,
      "longitude": -89.6333109
    },
    {
      "name": "Oxford House Vincere",
      "address": "2819 W. Fountaindale Dr., Peoria, IL 61614",
      "latitude": 40.7578098,
      "longitude": -89.6364664
    },
    {
      "name": "Oxford House Fondare",
      "address": "4205 W. Carrousel Ln., Peoria, IL 61615",
      "latitude": 40.7659009,
      "longitude": -89.65901629999999
    },
    {
      "name": "Oxford House Lila",
      "address": "415 W. Aspen Way, Peoria, IL 61614",
      "latitude": 40.7747533,
      "longitude": -89.5969612
    },
    {
      "name": "Oxford House Hawly",
      "address": "419 Collingwood Cir., Peoria, IL 61614",
      "latitude": 40.7766402,
      "longitude": -89.5991512
    },
    {
      "name": "Oxford House Waylon",
      "address": "5383 Pepper Dr., Rockford, IL 61114",
      "latitude": 42.3120287,
      "longitude": -89.01160329999999
    },
    {
      "name": "Oxford House Indigo Bird",
      "address": "1234 National Ave., Rockford, IL 61103",
      "latitude": 42.2830644,
      "longitude": -89.07828889999999
    },
    {
      "name": "Oxford House Rock River",
      "address": "6274 Brigantine Lane, Rockford, IL 61114",
      "latitude": 42.2962636,
      "longitude": -88.9943126
    },
    {
      "name": "Oxford House Ernest",
      "address": "3522 Applewood Ln., Rockford, IL 61114",
      "latitude": 42.3117933,
      "longitude": -89.0110804
    },
    {
      "name": "Oxford House Apollo 2",
      "address": "550 State Street, Sagamon, IL 62704",
      "latitude": 39.7963419,
      "longitude": -89.6662468
    },
    {
      "name": "Oxford House Southern View",
      "address": "3325 South First St, Springfield, IL 62703",
      "latitude": 39.75479500000001,
      "longitude": -89.65535829999999
    },
    {
      "name": "Oxford House Aramis",
      "address": "829 South 4th St, Springfield, IL 62703",
      "latitude": 39.7930397,
      "longitude": -89.65125259999999
    },
    {
      "name": "Oxford House Ranae",
      "address": "702 S English Ave, Springfield, IL 62704-2410",
      "latitude": 39.7950139,
      "longitude": -89.6690836
    },
    {
      "name": "Oxford House Delphinia",
      "address": "1703 S. 7th St., Springfield, IL 62702",
      "latitude": 39.783694,
      "longitude": -89.6472091
    },
    {
      "name": "Oxford House Pax",
      "address": "1936 S 5th St., Springfield, IL 62703",
      "latitude": 39.7795706,
      "longitude": -89.6495735
    },
    {
      "name": "Oxford House Enos",
      "address": "1058 N 6th St, Springfield, IL 62702",
      "latitude": 39.8141031,
      "longitude": -89.6472459
    },
    {
      "name": "Oxford House Brookhills",
      "address": "3609 W. Iles Avenue, Springfield, IL 62711",
      "latitude": 39.7712199,
      "longitude": -89.721323
    },
    {
      "name": "Oxford House Accord",
      "address": "1824 S. 4th Street, Springfield, IL 62703",
      "latitude": 39.7808615,
      "longitude": -89.6509719
    },
    {
      "name": "Oxford House Panther Creek",
      "address": "3300 Ellendale Dr., Springfield, IL 62704",
      "latitude": 39.7516884,
      "longitude": -89.692895
    },
    {
      "name": "Oxford House Kindred",
      "address": "109 Brian Drive, Swansea, IL 62226",
      "latitude": 38.5383324,
      "longitude": -89.97122949999999
    },
    {
      "name": "Oxford House Linview",
      "address": "930 N. Linview Avenue, Urbana, IL 61801",
      "latitude": 40.1230147,
      "longitude": -88.21793009999999
    },
    {
      "name": "Oxford House City of Urbana",
      "address": "1305 E. Harding Dr., Urbana, IL 61801",
      "latitude": 40.0935822,
      "longitude": -88.1926314
    },
    {
      "name": "Oxford House Hawkins",
      "address": "618 Second St, Waukegan, IL 60085-3914",
      "latitude": 42.3676299,
      "longitude": -87.8382919
    },
    {
      "name": "Oxford House Montesano",
      "address": "2227 Western Ave, Waukegan, IL 60085",
      "latitude": 42.3929666,
      "longitude": -87.84465379999999
    },
    {
      "name": "Oxford House Skyler",
      "address": "722 Atlantic Ave, Waukegan, IL 60087",
      "latitude": 42.3822824,
      "longitude": -87.83987809999999
    },
    {
      "name": "Oxford House Will",
      "address": "621 Keith Ave, Waukegan, IL 60085",
      "latitude": 42.3826934,
      "longitude": -87.83835739999999
    },
    {
      "name": "Oxford House Henry",
      "address": "524 S. Martin Luther King Jr. Ave, Waukegan, IL 60085-6541",
      "latitude": 42.35168729999999,
      "longitude": -87.8335314
    },
    {
      "name": "Oxford House Jocelyn",
      "address": "2133 Western Ave, Waukegan, IL 60087-3906",
      "latitude": 42.3914541,
      "longitude": -87.8446582
    },
    {
      "name": "Oxford House Stewart 3",
      "address": "1818 Jenkinson Ct., Waukegan, IL 60085-1513",
      "latitude": 42.3625339,
      "longitude": -87.8553364
    },